Bike Station,Name,Latitude,Longitude,Category,Address
北八王子駅,Dining Bar top,35.669063,139.361569,Speakeasy,"石川町2955-1, 八王子市, 東京都, 192-0032"
北八王子駅,のんでっ亭,35.669729,139.362654,Sake Bar,"石川町2958-1, 八王子市, 東京都, 192-0032"
北八王子駅,はまる堂,35.669712,139.362585,Sake Bar,"石川町2958-1, 八王子市, 東京都, 192-0032"
北八王子駅,酒や肴真也,35.669757,139.362533,Sake Bar,"石川町2958-1, 八王子市, 東京都, 192-0032"
北八王子駅,居酒屋 ふぁみりー,35.670738,139.363963,Sake Bar,"石川町2960-7 (北八マンション 1F), 八王子市, 東京都, 192-0032"
北八王子駅,Takakura Machi Coffee (高倉町珈琲),35.665941,139.363223,Café,"高倉町6-3, 八王子市, 東京都, 192-0033"
北八王子駅,Jyuppachi Seimen (十八製麺),35.66535,139.366992,Ramen Restaurant,"高倉町54-1, 八王子市, 東京都, 192-0033"
北八王子駅,とうふ屋うかい 大和田店,35.663848,139.357428,Japanese Restaurant,"大和田町2丁目18-10, 八王子市, 東京都, 192-0045"
北八王子駅,Bronco Billy (ブロンコビリー),35.666852,139.353614,Steakhouse,"大和田町5丁目33-5, 八王子市, 東京都, 192-0045"
北八王子駅,DIL KHUSH (デルコス),35.665605,139.362551,Indian Restaurant,"高倉町1-10 (ノースランドハイツ 1F), 八王子市, 東京都, 192-0033"
北八王子駅,Syabu-Yo (しゃぶ葉),35.66796,139.369192,Shabu-Shabu Restaurant,"高倉町40-9, 八王子市, 東京都, 192-0033"
北八王子駅,バーゼル 高倉店,35.66378,139.365271,Pastry Shop,"高倉町64-7, 八王子市, 東京都, 192-0033"
北八王子駅,Sushi Choushimaru (すし銚子丸),35.66544,139.366888,Japanese Family Restaurant,"高倉町54-2, 八王子市, 東京都, 192-0033"
北八王子駅,Red Baron (レッドバロン 八王子本店),35.664854,139.361828,Motorcycle Dealership,"大和田町1丁目1-1, 八王子市, 東京都, 192-0045"
北八王子駅,Marugame Seimen (丸亀製麺),35.66583,139.36635,Udon Restaurant,"高倉町54-3, 八王子市, 東京都, 192-0033"
北八王子駅,Ringer Hut (リンガーハット),35.67174,139.361661,Noodle Restaurant,"石川町2966-11, 八王子市, 東京都, 192-0032"
北八王子駅,Kisoji (木曽路),35.665849,139.365711,Shabu-Shabu Restaurant,"高倉町54-7, 八王子市, 東京都, 192-0033"
北八王子駅,CoCo Ichibanya (CoCo壱番屋 八王子高倉店),35.666065,139.364933,Restaurant,"高倉町52-22, 八王子市, 東京都, 192-0033"
北八王子駅,Châteraisé (シャトレーゼ 八王子高倉店),35.664989,139.369084,Pastry Shop,"高倉町49-3, 八王子市, 東京都, 192-0033"
北八王子駅,宝勝,35.6698,139.363189,Teishoku Restaurant,"石川町2960-1, 八王子市, 東京都, 192-0032"
北八王子駅,KFC (ケンタッキーフライドチキン),35.668676,139.353278,Fried Chicken Joint,"大谷町48-5, 八王子市, 東京都, 192-0034"
北八王子駅,まるご中華,35.669757,139.362533,Chinese Restaurant,"石川町2958-3, 八王子市, 東京都, 192-0032"
北八王子駅,Bamiyan (バーミヤン),35.665611,139.371897,Chinese Restaurant,"多摩平3丁目30-4, 日野市, 東京都, 191-0062"
北八王子駅,居酒屋くろべ,35.663997,139.367844,Sake Bar,"高倉町50-11, 八王子市, 東京都, 192-0033"
北八王子駅,鮨千,35.670738,139.363963,Sushi Restaurant,"石川町2960-7, 八王子市, 東京都, 192-0032"
北八王子駅,ドラマ 八王子高倉店,35.665048,139.366457,Arcade,"高倉町55-4, 八王子市, 東京都, 192-0033"
北八王子駅,酔東坡高倉店,35.665607,139.367578,Chinese Restaurant,"高倉町46-36, 八王子市, 東京都, 192-0033"
北八王子駅,ハイから酒場こけこっこ,35.66618,139.373536,Bar,"多摩平3丁目31-20, 日野市, 東京都, 191-0062"
北八王子駅,Gyu-Kaku (牛角),35.666436,139.353564,BBQ Joint,"大和田町5丁目31-24, 八王子市, 東京都, 192-0045"
北八王子駅,内田酒まんじゅう,35.670515,139.361131,Dessert Shop,"石川町2966-16, 八王子市, 東京都, 192-0032"
北八王子駅,北京家庭菜,35.673743,139.363501,Chinese Restaurant,"石川町2447-1, 八王子市, 東京都, 192-0032"
北八王子駅,海鮮市場 みなと食堂,35.673743,139.363501,Seafood Restaurant,"石川町2447-1 (斉藤ビル1F), 八王子市, 東京都, 192-0032"
北八王子駅,台湾料理品味多,35.673743,139.363501,Taiwanese Restaurant,"石川町2447-1, 八王子市, 東京都, 192-0032"
北八王子駅,寿し春,35.665712,139.362516,Sushi Restaurant,"高倉町1-10, 八王子市, 東京都, 192-0033"
北八王子駅,たのしい家八王子高倉,35.668782,139.368774,Daycare,"高倉町17-3, 八王子市, 東京都, 192-0033"
北八王子駅,やきとり いいじま,35.664471,139.363592,Bar,"高倉町58-8, 八王子市, 東京都, 192-0033"
北八王子駅,McDonald's (マクドナルド),35.666924,139.35415,Burger Joint,"大和田町4丁目21-4, 八王子市, 東京都, 192-0045"
北八王子駅,Gusto (ガスト),35.666079,139.356623,Japanese Family Restaurant,"大和田町4丁目15-10, 八王子市, 東京都, 192-0045"
北八王子駅,味の民芸八王子店,35.665851,139.370739,Japanese Family Restaurant,"高倉町36-2, 八王子市, 東京都, 192-0033"
北八王子駅,bien mall (ビアンモール),35.673655,139.357161,Restaurant,"石川町1838, 八王子市, 東京都, 192-0032"
北八王子駅,CAFE CORE (ベーカリーカフェ コア),35.673419,139.356903,Café,"石川町1838 (2F), 八王子市, 東京都, 192-0032"
北八王子駅,寿司義,35.664003,139.358308,Sushi Restaurant,"大和田町2丁目17-7, 八王子市, 東京都, 192-0045"
北八王子駅,Cafe Albert (アルベール),35.665047,139.370517,Café,"旭が丘2丁目43-11, 日野市, 東京都, 191-0065"
北八王子駅,ごはんのともえや大和田店,35.666817,139.354185,Deli,"大和田町4丁目21-4 (第2ともえビル1F), 八王子市, 東京都, 192-0045"
湯の森　深大湯,湯の森深大湯,35.67741,139.546521,Bathing Area,"深大寺北町6丁目17-3, 調布市, 東京都, 182-0011"
湯の森　深大湯,CAFFE & BAR PRONTO CAFFE調布店,35.681286,139.546306,Café,"深大寺北町6丁目52-2, 調布市, 東京都, 182-0011"
湯の森　深大湯,吉野果樹園,35.679986,139.539676,Vineyard,"野崎4丁目8-2, 三鷹市, 東京都, 181-0014"
湯の森　深大湯,馬部ぶどう園,35.676235,139.556083,Agriculture and Forestry Service,"深大寺東町7丁目5-1, 調布市, 東京都, 182-0012"
湯の森　深大湯,ひげ,35.683329,139.538925,Sake Bar,"野崎3丁目29-10, 三鷹市, 東京都, 181-0014"
湯の森　深大湯,相撲茶屋金太,35.674961,139.55631,Japanese Restaurant,"深大寺東町6丁目7-2, 調布市, 東京都, 182-0012"
湯の森　深大湯,KFC (ケンタッキーフライドチキン),35.681739,139.543136,Fried Chicken Joint,"野崎3丁目8-8, 三鷹市, 東京都, 181-0014"
湯の森　深大湯,深大寺門前そば本舗,35.677537,139.554765,Soba Restaurant,"深大寺東町8丁目2-5, 調布市, 東京都, 182-0012"
湯の森　深大湯,Kisoji (木曽路),35.681499,139.545267,Japanese Family Restaurant,"野崎4丁目1-18, 三鷹市, 東京都, 181-0014"
湯の森　深大湯,バスラーメン,35.674118,139.554718,Ramen Restaurant,"深大寺東町5丁目26-4, 調布市, 東京都, 182-0012"
湯の森　深大湯,Sushiro (スシロー),35.681202,139.55391,Sushi Restaurant,"深大寺北町4丁目30-1, 調布市, 東京都, 182-0011"
湯の森　深大湯,Kagonoya (かごの屋 三鷹野崎店),35.682196,139.548175,Japanese Restaurant,"野崎2丁目7-17, 三鷹市, 東京都, 181-0014"
湯の森　深大湯,Hamazushi (はま寿司),35.685532,139.545225,Sushi Restaurant,"野崎3丁目4-5, 三鷹市, 東京都, 181-0014"
湯の森　深大湯,Bamiyan (バーミヤン),35.678479,139.546883,Chinese Restaurant,"深大寺北町6丁目21-7, 調布市, 東京都, 182-0011"
湯の森　深大湯,Steak Gusto (ステーキガスト),35.669011,139.54425,Steakhouse,"深大寺元町4丁目10-3, 調布市, 東京都, 182-0017"
湯の森　深大湯,らーめん小国,35.681044,139.556387,Ramen Restaurant,"深大寺東町8丁目25-11, 調布市, 東京都, 182-0012"
湯の森　深大湯,酒菜処居酒屋 きくな,35.684167,139.550856,Sake Bar,"上連雀9丁目29-9, 三鷹市, 東京都, 181-0012"
湯の森　深大湯,YUYUカフェテラススナック,35.685592,139.549572,Bar,"野崎2丁目1-17, 三鷹市, 東京都, 181-0014"
湯の森　深大湯,Maruta,35.675327,139.546265,BBQ Joint,"深大寺北町1丁目20-1, 調布市, 東京都, 182-0011"
湯の森　深大湯,McDonald's (マクドナルド),35.681474,139.539378,Burger Joint,"野崎3丁目25-8 (東八道路), 三鷹市, 東京都, 181-0014"
湯の森　深大湯,Asian Curry SPARSH,35.681609,139.547172,Indian Restaurant,"野崎2丁目8-1 (クラウンビル 1F), 三鷹市, 東京都, 181-0014"
湯の森　深大湯,Kourakuen (幸楽苑),35.677351,139.554713,Ramen Restaurant,"深大寺東町8丁目2-1, 調布市, 東京都, 182-0012"
湯の森　深大湯,麺処八蔵,35.68158,139.547293,Chinese Restaurant,"野崎2丁目8-1 (クラウンビル103), 三鷹市, 東京都, 181-0014"
湯の森　深大湯,Park,35.673354,139.545264,Café,"深大寺北町1丁目2-1, 調布市, 東京都, 182-0011"
湯の森　深大湯,介護老人保健施設花水木,35.679661,139.552059,Assisted Living Service,"深大寺北町4丁目17-7, 調布市, 東京都, 182-0011"
湯の森　深大湯,文左亭,35.681967,139.543846,Snack Place,"野崎3丁目7-12 (コーナン 三鷹店 1F), 三鷹市, 東京都, 181-0014"
湯の森　深大湯,GREEN FRONT CAFE,35.67212,139.54421,Café,"深大寺元町4丁目38-4 (エクレール深大寺1F), 調布市, 東京都, 182-0017"
湯の森　深大湯,Green Salon (グリーンサロン),35.672065,139.546392,Tea Room,"深大寺元町5丁目31-10 (神代植物公園), 調布市, 東京都, 182-0017"
湯の森　深大湯,神代植物公園前バス停,35.672096,139.544591,Bus Stop,"深大寺元町 (小田急バス/京王バス), 調布市, 東京都, 182-0017"
湯の森　深大湯,浅田屋るりり,35.671872,139.544141,Bar,"深大寺元町4丁目31-5, 調布市, 東京都, 182-0017"
湯の森　深大湯,中華ゴング,35.683751,139.545505,Chinese Restaurant,"野崎2丁目19-8 (ヴィクトアール吉野 1F), 三鷹市, 東京都, 181-0014"
湯の森　深大湯,おもむく食堂,35.683467,139.548658,Udon Restaurant,"野崎2丁目6-41, 三鷹市, 東京都, 181-0014"
湯の森　深大湯,深大寺そば処松の木,35.671259,139.545198,Soba Restaurant,"深大寺元町5丁目35-22, 調布市, 東京都, 182-0017"
湯の森　深大湯,割烹すなお (割烹 矗 すなお),35.683535,139.549905,Japanese Restaurant,"野崎1丁目22-17 (アヴェニール三鷹 1F), 三鷹市, 東京都, 181-0014"
湯の森　深大湯,第二売店,35.670717,139.549442,Snack Place,"深大寺元町 (神代植物公園), 調布市, 東京都"
湯の森　深大湯,青木屋三鷹野崎店,35.685075,139.545485,Bakery,"野崎2丁目17-25, 三鷹市, 東京都, 181-0014"
湯の森　深大湯,ホームキッチン あぶ,35.670174,139.544767,Teishoku Restaurant,"深大寺元町5丁目33-24, 調布市, 東京都, 182-0017"
湯の森　深大湯,竹寿司,35.681692,139.538599,Sushi Restaurant,"大沢3丁目1-8, 三鷹市, 東京都, 181-0015"
湯の森　深大湯,Cadotカド,35.683032,139.538648,Wine Store,"大沢3丁目8-5, 三鷹市, 東京都, 181-0015"
湯の森　深大湯,Yakiniku King (焼肉きんぐ),35.685285,139.545156,BBQ Joint,"野崎3丁目4-7, 三鷹市, 東京都, 181-0014"
湯の森　深大湯,オー・ソレ・ミオ 私の太陽,35.670702,139.541424,Bakery,"大沢1丁目6-3, 三鷹市, 東京都, 182-0017"
湯の森　深大湯,くるみ薬局,35.685691,139.546368,Drugstore,"野崎2丁目16-13, 三鷹市, 東京都, 181-0014"
湯の森　深大湯,中川薬局三鷹店,35.672121,139.538911,Drugstore,"大沢1丁目17-19, 三鷹市, 東京都, 181-0015"
湯の森　深大湯,ニユー沙利文,35.672059,139.538894,Bar,"大沢1丁目17-19, 三鷹市, 東京都, 181-0015"
湯の森　深大湯,INDIAN RESTAURANT DIVI インド料理ディビー,35.685592,139.549572,Indian Restaurant,"野崎2-1-17-102, 三鷹市, 東京都, 181-0014"
湯の森　深大湯,ラザニ屋 Labo,35.685609,139.549641,Italian Restaurant,"野崎2丁目1-17, 三鷹市, 東京都, 181-0014"
湯の森　深大湯,Observatory History Museum (天文台歴史館),35.67427,139.536794,History Museum,"大沢2丁目21-1 (国立天文台), 三鷹市, 東京都, 181-8588"
湯の森　深大湯,Transit Instrument Building (子午儀資料館),35.674971,139.536343,History Museum,"大沢2丁目21-1 (国立天文台三鷹), 三鷹市, 東京都, 181-0015"
湯の森　深大湯,とん忠,35.672234,139.555293,Tonkatsu Restaurant,"深大寺東町5丁目15-11, 調布市, 東京都, 182-0012"
湯の森　深大湯,ワンコインBAR DeKO,35.678137,139.538709,Bar,"大沢2丁目3-11, 三鷹市, 東京都, 181-0015"
池之端2丁目 上野動物公園西​,Bar Ashiato (Bar あしあと),35.707504,139.771082,Pub,"湯島3丁目37-3 (RMビル 2F), 文京区, 東京都, 113-0034"
池之端2丁目 上野動物公園西​,Bar brat,35.708668,139.771605,Bar,"上野2丁目4-3 (池之端すきやビル 3F), 台東区, 東京都, 110-0005"
池之端2丁目 上野動物公園西​,MUSIC BAR 道,35.707967,139.770109,Bar,"湯島3丁目35-6, 文京区, 東京都, 113-0034"
池之端2丁目 上野動物公園西​,Yanaka Beer Hall (谷中ビアホール),35.722351,139.771048,Beer Bar,"上野桜木2丁目15-6 (上野桜木あたり1 1F), 台東区, 東京都, 110-0005"
池之端2丁目 上野動物公園西​,The World End,35.711319,139.775465,Beer Bar,"上野6丁目14-7 (TSUビル 2F), 台東区, 東京都, 110-0005"
池之端2丁目 上野動物公園西​,Niku no Oyama (肉の大山),35.710452,139.775221,Sake Bar,"上野6丁目13-2, 台東区, 東京都, 110-0005"
池之端2丁目 上野動物公園西​,Tachinomi Kadokura (立飲み カドクラ),35.710332,139.775447,Sake Bar,"上野6丁目13-1 (フォーラム味ビル 1F), 台東区, 東京都, 110-0005"
池之端2丁目 上野動物公園西​,Renkon (れんこん),35.709882,139.774282,Sake Bar,"上野4丁目9-1, 台東区, 東京都, 110-0005"
池之端2丁目 上野動物公園西​,COCKTAIL WORKS (カクテルワークス),35.709881,139.776228,Cocktail Bar,"上野6丁目7-15, 台東区, 東京都, 110-0005"
池之端2丁目 上野動物公園西​,Motsuyaki Daitoryo (もつ焼き大統領 支店),35.710452,139.775221,Sake Bar,"上野6丁目13-2, 台東区, 東京都, 110-0005"
池之端2丁目 上野動物公園西​,Tachinomi Takioka (立飲み たきおか),35.710253,139.77536,Sake Bar,"上野6丁目9-14, 台東区, 東京都, 110-0005"
池之端2丁目 上野動物公園西​,Afilia Sherry's (アフィリア・シェリーズ),35.711038,139.775256,Cocktail Bar,"上野6丁目13-8 (上野ソシアルビル B1F), 台東区, 東京都, 110-0005"
池之端2丁目 上野動物公園西​,Uokusa (魚草),35.709597,139.774785,Cocktail Bar,"上野6丁目10-7 (アメ横プラザA棟 29号), 台東区, 東京都, 110-0005"
池之端2丁目 上野動物公園西​,湯島大衆バル 鶏ットリア,35.707546,139.769796,Bar,"湯島3丁目33-1, 文京区, 東京都, 113-0034"
池之端2丁目 上野動物公園西​,EST!,35.708632,139.770232,Bar,"湯島3丁目45-3, 文京区, 東京都, 113-0034"
池之端2丁目 上野動物公園西​,76vin,35.718152,139.765778,Wine Bar,"根津2丁目13-8 (言問通り), 文京区, 東京都, 113-0031"
池之端2丁目 上野動物公園西​,ほていちゃん 上野店,35.709613,139.774855,Sake Bar,"上野6丁目10-13 (JR高架下), 台東区, 東京都, 110-0005"
池之端2丁目 上野動物公園西​,ふれあい酒場 ほていちゃん 上野4号店,35.710452,139.775221,Sake Bar,"上野6丁目13-2 (渡辺上野ビル 2F), 台東区, 東京都, 110-0005"
池之端2丁目 上野動物公園西​,Papin (湯島ワイン食堂 パパン),35.707797,139.770127,Wine Bar,"湯島3丁目35-5, 文京区, 東京都, 113-0034"
池之端2丁目 上野動物公園西​,Torimichi Sakaba Ueno,35.710204,139.775151,Hookah Bar,"上野6丁目9-11 (三真ビル 6F), 台東区, 東京都, 110-0005"
池之端2丁目 上野動物公園西​,CRAFT WORKS,35.70882,139.760555,Beer Bar,"本郷5丁目24-2 (グレースイマスビル B1F), 文京区, 東京都, 113-0033"
池之端2丁目 上野動物公園西​,Shinsuke (シンスケ),35.708136,139.769119,Sake Bar,"湯島3丁目31-5 (ユシマ3315ビル), 文京区, 東京都, 113-0034"
池之端2丁目 上野動物公園西​,大衆酒場晩杯屋北関東ふるさと編 ファンデス上野,35.712582,139.777378,Sake Bar,"上野7丁目2-4 (FUNDES上野 5F), 台東区, 東京都, 110-0005"
池之端2丁目 上野動物公園西​,たる松上野店,35.709981,139.775672,Sake Bar,"上野6丁目8-10, 台東区, 東京都, 110-0005"
池之端2丁目 上野動物公園西​,Kurumaya (車屋),35.718239,139.765413,Sake Bar,"根津2丁目18-2, 文京区, 東京都, 113-0031"
池之端2丁目 上野動物公園西​,Yorokobi (慶),35.718924,139.766839,Sake Bar,"谷中1丁目2-14, 台東区, 東京都, 110-0001"
池之端2丁目 上野動物公園西​,ふれあい酒場 ほていちゃん ‏ 上野浅草口店,35.712693,139.777604,Sake Bar,"上野7丁目2-5 (ニュー上野ビル 1F), 台東区, 東京都, 110-0005"
池之端2丁目 上野動物公園西​,Bar 百萬ドル,35.717797,139.76477,Bar,"根津1丁目3-7 (根津ステーションビル 1F), 文京区, 東京都, 113-0031"
池之端2丁目 上野動物公園西​,赤提灯,35.708962,139.771622,Sake Bar,"上野2丁目10-4 (池之端会館), 台東区, 東京都, 110-0005"
池之端2丁目 上野動物公園西​,Bar Abrevoir (バー アブルボワー),35.717599,139.761989,Bar,"文京区, 東京都, 113-0032"
池之端2丁目 上野動物公園西​,BARくるみ,35.720089,139.763469,Bar,"根津2丁目29-4 (1F), 文京区, 東京都, 113-0031"
池之端2丁目 上野動物公園西​,Kamachiku (根津 釜竹),35.718185,139.76689,Udon Restaurant,"根津2丁目14-18, 文京区, 東京都, 113-0031"
池之端2丁目 上野動物公園西​,Ueno Zoo (上野動物園),35.715825,139.772778,Zoo,"上野公園9-83, 台東区, 東京都, 110-0005"
池之端2丁目 上野動物公園西​,Hantei (はん亭 根津),35.717809,139.765552,Kushikatsu Restaurant,"根津2丁目12-15, 文京区, 東京都, 113-0031"
池之端2丁目 上野動物公園西​,Izuei (鰻割烹 伊豆栄 梅川亭),35.714839,139.771786,Unagi Restaurant,"上野公園4-34, 台東区, 東京都, 110-0007"
池之端2丁目 上野動物公園西​,Innsyoutei (韻松亭),35.71388,139.772619,Kaiseki Restaurant,"上野公園4-59, 台東区, 東京都, 110-0007"
池之端2丁目 上野動物公園西​,Ueno Park (上野恩賜公園),35.71363,139.77266,Urban Park,"上野公園5-20, 台東区, 東京都, 110-0007"
池之端2丁目 上野動物公園西​,Penguin (ペンギン),35.714125,139.769509,Zoo,"上野公園9-83 (上野動物園 西園), 台東区, 東京都, 110-8711"
池之端2丁目 上野動物公園西​,Polar Bear & Seal Oceans (ホッキョクグマとアザラシの海),35.716759,139.770381,Zoo,"上野公園9-83 (上野動物園 東園), 台東区, 東京都, 110-8711"
池之端2丁目 上野動物公園西​,36番倉庫,35.707407,139.761908,Sake Bar,"本郷3丁目36-11 (中村ビル 1F), 文京区, 東京都, 113-0033"
池之端2丁目 上野動物公園西​,Kayaba Coffee (カヤバ珈琲),35.721129,139.770769,Café,"谷中6丁目1-29, 台東区, 東京都, 110-0001"
池之端2丁目 上野動物公園西​,Nagaokaya (下町バル ながおか屋),35.709139,139.772126,Beer Bar,"上野2丁目9-5 (1F/4F), 台東区, 東京都, 110-0005"
池之端2丁目 上野動物公園西​,COUZT CAFE+SHOP,35.720647,139.765572,Bar,"谷中2丁目1-11, 台東区, 東京都, 110-0001"
池之端2丁目 上野動物公園西​,スターバックス,35.716168,139.773977,Coffee Shop,"上野公園8-22 (上野恩賜公園), 台東区, 東京都, 110-0007"
池之端2丁目 上野動物公園西​,Tiger Forest (トラの森),35.71813,139.771286,Zoo,"上野公園9-83 (上野動物園 東園), 台東区, 東京都, 110-8711"
池之端2丁目 上野動物公園西​,Ueshima Coffee House (上島珈琲店),35.718902,139.77332,Café,"上野公園13-43 (黒田記念館 別館 1F-2F), 台東区, 東京都, 110-0005"
池之端2丁目 上野動物公園西​,Ueno Seiyoken Restaurant (上野精養軒本店 レストラン),35.714227,139.772133,Yoshoku Restaurant,"上野公園4-58, 台東区, 東京都, 110-8715"
池之端2丁目 上野動物公園西​,Hotel Graphy Nezu (ホテルグラフィ根津),35.717226,139.768696,"Cafe, Coffee, and Tea House","池之端4丁目5-10, 台東区, 東京都, 110-0008"
池之端2丁目 上野動物公園西​,Gorilla Woods (ゴリラの森),35.717978,139.7704,Zoo,"上野公園9-83 (上野動物園 東園), 台東区, 東京都, 110-8711"
池之端2丁目 上野動物公園西​,Kyu-Iwasaki-tei Gardens (旧岩崎邸庭園),35.710127,139.76728,Garden,"池之端1丁目3-45, 台東区, 東京都, 110-0008"
ビイルーム自由が丘,Kaneda (金田),35.60807,139.66931,Sake Bar,"自由が丘1丁目11-4, 目黒区, 東京都, 152-0035"
ビイルーム自由が丘,Devil Craft,35.607101,139.667421,Beer Bar,"自由が丘2丁目12-18, 目黒区, 東京都, 152-0035"
ビイルーム自由が丘,みつばち,35.606147,139.669483,Sake Bar,"奥沢5丁目20-17, 世田谷区, 東京都, 158-0083"
ビイルーム自由が丘,たちのみ あつまり,35.607299,139.666312,Pub,"自由が丘2丁目14-19, 目黒区, 東京都, 152-0035"
ビイルーム自由が丘,鳥貴族自由が丘北口店,35.608665,139.669864,Sake Bar,"自由が丘 1丁目 14-15 (サーカス自由が丘 2F), 目黒区, 東京都, 152-0035"
ビイルーム自由が丘,Osteria BAR ilungo,35.605487,139.671563,Bar,"奥沢2丁目12-6, 世田谷区, 東京都, 158-0083"
ビイルーム自由が丘,pelican coffee,35.596879,139.666955,Café,"田園調布3丁目25-17, 大田区, 東京都, 145-0071"
ビイルーム自由が丘,D&DEPARTMENT,35.602335,139.658325,Vintage and Thrift Store,"奥沢8丁目3-2, 世田谷区, 東京都, 158-0083"
ビイルーム自由が丘,Tai Kou Rou (泰興楼),35.605306,139.665948,Chinese Restaurant,"奥沢6丁目31-17, 世田谷区, 東京都, 158-0083"
ビイルーム自由が丘,Cafe.maison de K.,35.603379,139.66101,Café,"奥沢6丁目11-7 (田園コーポラス 1F), 世田谷区, 東京都, 158-0083"
ビイルーム自由が丘,Patisserie Paris Seveille (パリ・セヴェイユ),35.60689,139.66678,Pastry Shop,"自由が丘2丁目14-5, 目黒区, 東京都, 152-0035"
ビイルーム自由が丘,Hosakaya (ほさかや),35.608009,139.669292,Unagi Restaurant,"自由が丘1丁目11-5, 目黒区, 東京都, 152-0035"
ビイルーム自由が丘,FLIPPER'S Jiyugaoka,35.606915,139.66931,Café,"自由が丘1丁目8-7 (3F), 目黒区, 東京都, 152-0035"
ビイルーム自由が丘,スターバックス,35.607315,139.671233,Coffee Shop,"奥沢2丁目38-9, 世田谷区, 東京都, 158-0083"
ビイルーム自由が丘,ALPHA BETA COFFEE CLUB,35.608128,139.668097,Coffee Shop,"自由が丘2丁目10-4 (ミルシェ自由が丘 3F), 目黒区, 東京都, 152-0035"
ビイルーム自由が丘,Pizza 17,35.607122,139.66678,Pizzeria,"自由が丘 2丁目14-2, 目黒区, 東京都, 152-0035"
ビイルーム自由が丘,LATTE GRAPHIC Jiyugaoka,35.606907,139.66879,Café,"自由が丘1丁目8-18 (自由が丘ノーブル2F), 目黒区, 東京都, 152-0035"
ビイルーム自由が丘,京城園,35.609057,139.669327,BBQ Joint,"自由が丘1丁目26-3 (自由ケ丘升本ビル 2F), 目黒区, 東京都, 152-0035"
ビイルーム自由が丘,TODAY'S SPECIAL,35.609255,139.667247,Retail,"自由が丘2丁目17-8 (1F-2F), 目黒区, 東京都, 152-0035"
ビイルーム自由が丘,TWG Tea Salon & Boutique,35.607295,139.668963,Tea Room,"自由が丘1丁目9-8 (etomo 自由が丘), 目黒区, 東京都, 152-0035"
ビイルーム自由が丘,福風,35.602475,139.66037,Sake Bar,"奥沢8丁目1-21, 世田谷区, 東京都, 158-0083"
ビイルーム自由が丘,ARTISAN BOULANGER CUPIDO,35.603518,139.673729,Bakery,"奥沢3丁目45-2, 世田谷区, 東京都, 158-0083"
ビイルーム自由が丘,Taizan Sheng Jian Ten (大山生煎店),35.608264,139.670852,Dim Sum Restaurant,"自由ヶ丘1丁目4-6 (1F), 目黒区, 東京都, 152-0035"
ビイルーム自由が丘,ノーブラシ洗車スプラッシュ,35.606053,139.657683,Car Wash and Detail,"尾山台3丁目29-1, 世田谷区, 東京都, 158-0086"
ビイルーム自由が丘,Tonkatsu Mikado (とんかつ ミカド),35.600089,139.673157,Tonkatsu Restaurant,"奥沢3丁目5-9, 世田谷区, 東京都, 158-0083"
ビイルーム自由が丘,OKUSAWA FACTORY Coffee & Bakes,35.602215,139.672135,Café,"奥沢3丁目30-15, 世田谷区, 東京都, 158-0083"
ビイルーム自由が丘,Cafe La Boheme - Jiyugaoka,35.608281,139.670921,Café,"自由が丘1丁目4-8, 目黒区, 東京都, 152-0035"
ビイルーム自由が丘,奥沢サクレクール,35.600869,139.671823,French Restaurant,"奥沢3丁目12-6, 世田谷区, 東京都, 158-0083"
ビイルーム自由が丘,ポタージュ,35.603572,139.671286,Café,"奥沢4丁目28-4, 世田谷区, 東京都, 158-0083"
ビイルーム自由が丘,Yokohama Ramen TRIBE (渡来武),35.608062,139.66976,Chinese Restaurant,"自由が丘1丁目12-4, 目黒区, 東京都, 152-0035"
ビイルーム自由が丘,炭火焼鳥太美屋,35.603572,139.671286,Sake Bar,"奥沢4丁目28-4 (丸岡ビル1F), 世田谷区, 東京都, 158-0083"
ビイルーム自由が丘,焼鳥 うの,35.602425,139.671806,Kushikatsu Restaurant,"奥沢3丁目30-11, 世田谷区, 東京都, 158-0083"
ビイルーム自由が丘,ひなたキッチン,35.60758,139.66749,Restaurant,"自由が丘2丁目11-16 (リベルテビル B1F), 目黒区, 東京都, 152-0035"
ビイルーム自由が丘,Punk Doily,35.605232,139.657389,Pie Shop,"尾山台3丁目28-21 (3F), 世田谷区, 東京都, 158-0086"
ビイルーム自由が丘,アンリーヴル,35.604658,139.671719,Bistro,"奥沢2丁目10-7, 世田谷区, 東京都, 158-0083"
ビイルーム自由が丘,Y’s Diner,35.604612,139.671771,Wine Bar,"奥沢2丁目10-7 (伊賀ビル 1F), 世田谷区, 東京都, 158-0083"
ビイルーム自由が丘,Horai Park (宝来公園),35.594602,139.664183,Park,"田園調布3丁目31-1, 大田区, 東京都, 145-0071"
ビイルーム自由が丘,Comme'N TOKYO,35.605797,139.661946,Bakery,"奥沢7丁目18-5, 世田谷区, 東京都, 158-0083"
ビイルーム自由が丘,Bikkuri Sushi (びっくり寿司),35.606907,139.66879,Sushi Restaurant,"自由が丘1丁目8-18 (ノーブルビル 1F), 目黒区, 東京都, 152-0035"
ビイルーム自由が丘,Royal Host (ロイヤルホスト),35.602195,139.656281,Japanese Family Restaurant,"尾山台2丁目25-9, 世田谷区, 東京都, 158-0086"
ビイルーム自由が丘,焼き鳥鳥彦,35.593545,139.66751,Sake Bar,"高津区久本3丁目13-12, 川崎市, 神奈川県, 213-0011"
ビイルーム自由が丘,Starbucks (スターバックス),35.608718,139.667421,Coffee Shop,"自由が丘2丁目10-18 (栗山ビルII 1F), 目黒区, 東京都, 152-0035"
ビイルーム自由が丘,BAR JICON OKUSAWA,35.604427,139.665896,Bar,"奥沢5-38-8, 世田谷区, 東京都, 158-0083"
ビイルーム自由が丘,高橋葡萄園,35.606424,139.657787,Vineyard,"等々力5-22, 世田谷区, 東京都, 158-0082"
ビイルーム自由が丘,KFC (ケンタッキーフライドチキン),35.596801,139.666868,Fried Chicken Joint,"田園調布3丁目25-17, 大田区, 東京都, 145-0071"
ビイルーム自由が丘,穂の香自由が丘店,35.609185,139.662829,Bakery,"奥沢7-53-2-101 (1F), 世田谷区, 東京都, 158-0083"
ビイルーム自由が丘,兵隊屋,35.597247,139.662918,Soba Restaurant,"田園調布3丁目14-10, 大田区, 東京都, 145-0071"
ビイルーム自由が丘,うどん伊予,35.602582,139.671979,Udon Restaurant,"奥沢3丁目31-3, 世田谷区, 東京都, 158-0083"
ビイルーム自由が丘,Cafe Enseigne d'angle (カフェ アンセーニュ ダングル),35.608054,139.670211,Café,"自由ヶ丘1丁目13-6 (鳥井ビル 1F), 目黒区, 東京都, 152-0035"
ビイルーム自由が丘,BAR Neverland (バー ネバーランド),35.606354,139.667924,Bar,"奥沢5丁目28-15, 世田谷区, 東京都, 158-0083"
ローソン　板橋東坂下一丁目店,Yakiton Hinata (やきとん ひなた),35.775057,139.695449,Sake Bar,"志村1丁目13-4 (川口ビル 1F), 板橋区, 東京都, 174-0056"
ローソン　板橋東坂下一丁目店,69s cafe de bar,35.776342,139.692113,Bar,"板橋区, 東京都, 174-0056"
ローソン　板橋東坂下一丁目店,カラオケセイレーン,35.777625,139.685859,Karaoke Box,"志村3丁目24-1 (グァド志村 B1F), 板橋区, 東京都, 174-0056"
ローソン　板橋東坂下一丁目店,ジェームス,35.776619,139.692061,Bar,"志村2丁目9-5, 板橋区, 東京都, 174-0056"
ローソン　板橋東坂下一丁目店,串揚げ 坂の上の福,35.776318,139.693468,Sake Bar,志村1丁目35-13
ローソン　板橋東坂下一丁目店,長八,35.787231,139.685183,Bar,"坂下3丁目22-17, 板橋区, 東京都, 174-0043"
ローソン　板橋東坂下一丁目店,目利きの銀次志村坂上駅前店,35.776695,139.694806,Sake Bar,"ローズハイム1F, 板橋区, 東京都, 174-0051"
ローソン　板橋東坂下一丁目店,ストックトン志村坂上店,35.776303,139.695345,Bar,"小豆沢2丁目18-7, 板橋区, 東京都, 174-0051"
ローソン　板橋東坂下一丁目店,魚まる 志村坂上店,35.775546,139.693381,Sake Bar,"志村1丁目34-1, 板橋区, 東京都, 174-0056"
ローソン　板橋東坂下一丁目店,飯綱,35.775726,139.695831,Sake Bar,"小豆沢2丁目17-7 (キャッスルマンションB1), 板橋区, 東京都, 174-0051"
ローソン　板橋東坂下一丁目店,カラオケルームメモリー,35.775833,139.695796,Karaoke Box,"小豆沢2丁目17-8, 板橋区, 東京都, 174-0051"
ローソン　板橋東坂下一丁目店,エビス参板橋志村三丁目店,35.776317,139.682315,Sake Bar,"相生町2-3, 板橋区, 東京都, 174-0044"
ローソン　板橋東坂下一丁目店,目利きの銀次蓮根東口駅前店,35.783357,139.679362,Sake Bar,"坂下2丁目15-13 (荒井ビル 2階), 板橋区, 東京都, 174-0043"
ローソン　板橋東坂下一丁目店,やじろべえ 蓮根店,35.784472,139.679675,Sake Bar,"坂下2丁目33-5, 板橋区, 東京都, 174-0043"
ローソン　板橋東坂下一丁目店,居楽屋笑笑蓮根東口駅前店,35.784935,139.679675,Bar,"坂下2丁目33-12 (メイホウビル 1F), 板橋区, 東京都, 174-0043"
ローソン　板橋東坂下一丁目店,備長扇屋浮間店,35.791031,139.692151,Sake Bar,"浮間4丁目32-11, 北区, 東京都, 115-0051"
ローソン　板橋東坂下一丁目店,Ramen Hajime (らあめん 元 HAJIME),35.78427,139.679553,Ramen Restaurant,"坂下2丁目16-11, 板橋区, 東京都, 174-0043"
ローソン　板橋東坂下一丁目店,ARIYA shot BAR,35.776442,139.69253,Bar,"志村2丁目8-2, 板橋区, 東京都, 174-0056"
ローソン　板橋東坂下一丁目店,York Foods with The Garden Jiyugaoka (ヨークフーズ with ザ・ガーデン自由が丘),35.780126,139.694407,Bakery,"小豆沢3丁目9-5 (セブンタウン小豆沢 1F), 板橋区, 東京都, 174-0051"
ローソン　板橋東坂下一丁目店,Ringer Hut (リンガーハット),35.779443,139.687666,Noodle Restaurant,"坂下1丁目5-1 (環八通り), 板橋区, 東京都, 174-0043"
ローソン　板橋東坂下一丁目店,Jiro's Table (ジロー's テーブル),35.777125,139.68546,Chinese Restaurant,"志村3丁目9-4, 板橋区, 東京都, 174-0056"
ローソン　板橋東坂下一丁目店,インド料理ビニタ,35.776527,139.695797,Indian Restaurant,"小豆沢2丁目19-13, 板橋区, 東京都, 174-0051"
ローソン　板橋東坂下一丁目店,Matsunoya / Mycurry Shokudo (松のや・マイカリー食堂),35.776138,139.69465,Tonkatsu Restaurant,"志村1丁目14-12 (内川ビル), 板橋区, 東京都, 174-0056"
ローソン　板橋東坂下一丁目店,Tonden (とんでん),35.780803,139.694338,Japanese Family Restaurant,"東坂下1丁目5-5, 板橋区, 東京都, 174-0042"
ローソン　板橋東坂下一丁目店,ブリジアーノ,35.780411,139.690272,Bar,"坂下1丁目1-11, 板橋区, 東京都, 174-0043"
ローソン　板橋東坂下一丁目店,サンチン高島通り店,35.784711,139.683827,Ramen Restaurant,"坂下2丁目30-17, 板橋区, 東京都, 174-0043"
ローソン　板橋東坂下一丁目店,Doutor Coffee Shop (ドトールコーヒーショップ),35.776258,139.695397,Café,"小豆沢2丁目18-7 (ファインコート志村坂上 1F), 板橋区, 東京都, 174-0051"
ローソン　板橋東坂下一丁目店,焼鳥居酒屋有,35.778101,139.687614,Sake Bar,"志村3丁目28-1, 板橋区, 東京都, 174-0056"
ローソン　板橋東坂下一丁目店,Hanaya Yohei (華屋与兵衛),35.781381,139.689247,Japanese Family Restaurant,"坂下1丁目25-14, 板橋区, 東京都, 174-0043"
ローソン　板橋東坂下一丁目店,丸八志村店,35.776511,139.692096,Bar,"志村2丁目9-4, 板橋区, 東京都, 174-0056"
ローソン　板橋東坂下一丁目店,ロックス カフェバー 志村坂上店,35.776342,139.692113,Bar,"志村2丁目9-12, 板橋区, 東京都, 174-0056"
ローソン　板橋東坂下一丁目店,左んしょう右を,35.776512,139.693069,Sake Bar,"志村2丁目2-6, 板橋区, 東京都, 174-0056"
ローソン　板橋東坂下一丁目店,原価酒場本店,35.776373,139.693938,Sake Bar,"志村2丁目1-4, 板橋区, 東京都, 174-0056"
ローソン　板橋東坂下一丁目店,坂の上の福,35.776137,139.693677,Bar,"志村1丁目35-13, 板橋区, 東京都, 174-0056"
ローソン　板橋東坂下一丁目店,居酒屋 あさちゃん,35.775864,139.693017,Sake Bar,"志村1丁目34-20 (ファミールコーポ), 板橋区, 東京都, 174-0056"
ローソン　板橋東坂下一丁目店,バルルーナ,35.775864,139.693017,Bar,"志村1丁目34-20, 板橋区, 東京都, 174-0056"
ローソン　板橋東坂下一丁目店,ヴエール,35.776092,139.693729,Bar,"志村1丁目35-13, 板橋区, 東京都, 174-0056"
ローソン　板橋東坂下一丁目店,Tengu (天狗),35.775853,139.689577,Japanese Restaurant,"志村2丁目12-6 (志村2丁目橋本ビル), 板橋区, 東京都, 174-0056"
ローソン　板橋東坂下一丁目店,Alpen,35.77627,139.695206,Cocktail Bar,"小豆沢2丁目18-7, 板橋区, 東京都, 174-0051"
ローソン　板橋東坂下一丁目店,スター,35.775567,139.693712,Bar,"志村1丁目16-7, 板橋区, 東京都, 174-0056"
ローソン　板橋東坂下一丁目店,アジアダイニング居酒屋 ビニタ 小豆沢志村坂上店,35.776527,139.695797,Sake Bar,"小豆沢2丁目19-13, 板橋区, 東京都, 174-0051"
ローソン　板橋東坂下一丁目店,彩,35.775538,139.693833,Bar,"志村1丁目16-7, 板橋区, 東京都, 174-0056"
ローソン　板橋東坂下一丁目店,パブ卯月,35.775594,139.696248,Bar,"小豆沢2丁目17-2, 板橋区, 東京都, 174-0051"
ローソン　板橋東坂下一丁目店,Hirukara,35.775594,139.696248,Bar,"小豆沢2丁目17-2, 板橋区, 東京都, 174-0051"
ローソン　板橋東坂下一丁目店,酒研究所酒道庵庵,35.779371,139.680578,Bar,"蓮根1丁目1-1, 板橋区, 東京都, 174-0046"
ローソン　板橋東坂下一丁目店,Living,35.775834,139.696769,Bar,"小豆沢2丁目19-5, 板橋区, 東京都, 174-0051"
ローソン　板橋東坂下一丁目店,Ramen Kagetsu Arashi (らあめん花月嵐),35.779436,139.689091,Ramen Restaurant,"志村3丁目31-15, 板橋区, 東京都, 174-0056"
ローソン　板橋東坂下一丁目店,居酒屋風ちゃん,35.78039,139.679762,Sake Bar,"蓮根1丁目1-16, 板橋区, 東京都, 174-0046"
ローソン　板橋東坂下一丁目店,厳選もつ酒場 エビス参,35.776317,139.682315,Bar,"相生町2-3, 板橋区, 東京都, 174-0044"
ローソン　板橋東坂下一丁目店,福ちゃん,35.777757,139.680839,Bar,"相生町10-9, 板橋区, 東京都, 174-0044"
アイパーク駐車場 世田谷代田南口第1,& BAR,35.661293,139.665956,Bar,"世田谷区, 東京都, 155-0031"
アイパーク駐車場 世田谷代田南口第1,Ushitora (うしとら),35.662614,139.665678,Beer Bar,"代田6丁目3-27 (アゼリアハウス 1F), 世田谷区, 東京都, 155-0033"
アイパーク駐車場 世田谷代田南口第1,Bar & Restaurant MOTHER,35.65916,139.66743,Cocktail Bar,"代沢5丁目36-14, 世田谷区, 東京都, 155-0032"
アイパーク駐車場 世田谷代田南口第1,飲み屋 えるえふる,35.661465,139.660372,Sake Bar,"代田5丁目28-3, 世田谷区, 東京都, 155-0033"
アイパーク駐車場 世田谷代田南口第1,COASTER,35.657344,139.667569,Beer Bar,"代沢5丁目19-13 (コーセイハイム 1F), 世田谷区, 東京都, 155-0032"
アイパーク駐車場 世田谷代田南口第1,Shirubee (汁べゑ),35.660307,139.66691,Sake Bar,"北沢2丁目18-2 (パインクレスト北沢 1F), 世田谷区, 東京都, 155-0031"
アイパーク駐車場 世田谷代田南口第1,LITTLE SOUL CAFE,35.663275,139.669424,Bar,"北沢3丁目20-2 (大成ビル 2F), 世田谷区, 東京都, 155-0031"
アイパーク駐車場 世田谷代田南口第1,大衆酒場 よっちゃん,35.660018,139.667153,Sake Bar,"北沢2丁目17-14 (下北沢センタービル B1F), 世田谷区, 東京都, 155-0031"
アイパーク駐車場 世田谷代田南口第1,Nishinba (にしんば),35.662347,139.669164,Sake Bar,"北沢2丁目9-20, 世田谷区, 東京都, 155-0031"
アイパーク駐車場 世田谷代田南口第1,altoto,35.660592,139.667378,Bar,"北沢2丁目19-15, 世田谷区, 東京都, 155-0031"
アイパーク駐車場 世田谷代田南口第1,Toritonkun (とりとんくん),35.659494,139.667135,Sake Bar,"北沢2丁目15-3 (中村ビル B1F), 世田谷区, 東京都, 155-0031"
アイパーク駐車場 世田谷代田南口第1,ワインバー HAGARE,35.662045,139.668626,Wine Bar,"北沢2丁目9-3, 世田谷区, 東京都, 155-0031"
アイパーク駐車場 世田谷代田南口第1,TAP&GROWLER,35.663019,139.668834,Beer Bar,"北沢2丁目33-6 (飯嶋ビル 1F), 世田谷区, 東京都, 155-0031"
アイパーク駐車場 世田谷代田南口第1,Last Chance (ラストチャンス),35.654014,139.667414,Cocktail Bar,"代沢4丁目41-8 (竹ビル 1F), 世田谷区, 東京都, 155-0032"
アイパーク駐車場 世田谷代田南口第1,Shiro-Hige's Cream Puff Factory (白髭のシュークリーム工房),35.658961,139.662714,"Cafe, Coffee, and Tea House","代田5丁目3-1, 世田谷区, 東京都, 155-0033"
アイパーク駐車場 世田谷代田南口第1,bar ala,35.654567,139.653976,Bar,"梅丘1丁目15-11 (tomoビル B1F), 世田谷区, 東京都, 154-0022"
アイパーク駐車場 世田谷代田南口第1,スターバックス,35.657055,139.667812,Coffee Shop,"代沢5丁目8-13 (クリークス代沢 1F), 世田谷区, 東京都, 155-0032"
アイパーク駐車場 世田谷代田南口第1,Ramen Jiro (ラーメン二郎 環七新新代田店),35.66196,139.660511,Ramen Restaurant,"代田5丁目29-5, 世田谷区, 東京都, 155-0033"
アイパーク駐車場 世田谷代田南口第1,香家新代田本店 ,35.662129,139.660493,Chinese Restaurant,"代田5丁目29-6, 世田谷区, 東京都, 155-0033"
アイパーク駐車場 世田谷代田南口第1,Umegaoka Sushi no Midori (梅丘寿司の美登利総本店),35.655586,139.654132,Sushi Restaurant,"梅丘1丁目20-7, 世田谷区, 東京都, 154-0022"
アイパーク駐車場 世田谷代田南口第1,Nasu Oyaji (北沢カレー食堂 茄子おやじ),35.65926,139.666862,Japanese Curry Restaurant,"代沢5丁目36-8 (アルファビル 1F), 世田谷区, 東京都, 155-0032"
アイパーク駐車場 世田谷代田南口第1,lete (レテ),35.658954,139.667049,Music Venue,"代沢5丁目33-3, 世田谷区, 東京都, 155-0032"
アイパーク駐車場 世田谷代田南口第1,CITY COUNTRY CITY,35.660931,139.668314,Bar,"北沢2丁目12-13 (細沢ビル 4F), 世田谷区, 東京都, 155-0031"
アイパーク駐車場 世田谷代田南口第1,Salmon & Trout,35.654274,139.667292,Modern European Restaurant,"代沢4丁目42-7, 世田谷区, 東京都, 155-0032"
アイパーク駐車場 世田谷代田南口第1,BALLOND'ESSAI Latte & Art,35.663015,139.667603,Café,"北沢2丁目30-11 (1F), 世田谷区, 東京都, 155-0031"
アイパーク駐車場 世田谷代田南口第1,CLUB251,35.658281,139.667378,Rock Club,"代沢5丁目29-15 (SYビル B1F), 世田谷区, 東京都, 155-0032"
アイパーク駐車場 世田谷代田南口第1,Kohaze Coffee (こはぜ珈琲),35.663065,139.668782,Café,"北沢2丁目33-6 (グリーンテラス 1F), 世田谷区, 東京都, 155-0031"
アイパーク駐車場 世田谷代田南口第1,ライブハウス フィーバー,35.662829,139.660096,Rock Club,"羽根木1丁目1-14 (新代田ビル 1F), 世田谷区, 東京都, 156-0042"
アイパーク駐車場 世田谷代田南口第1,Da Oggi ,35.659103,139.668644,Pizzeria,"代沢2丁目29-2 (MART下北沢 1F), 世田谷区, 東京都, 155-0032"
アイパーク駐車場 世田谷代田南口第1,Pancake Parlor Fru-Full (ホットケーキパーラー Fru-Full),35.656758,139.65323,Dessert Shop,"松原6丁目1-11, 世田谷区, 東京都, 156-0043"
アイパーク駐車場 世田谷代田南口第1,Shin Taipei (新台北),35.661406,139.669095,Taiwanese Restaurant,"北沢2丁目6-5 (ルイビル 1F), 世田谷区, 東京都, 155-0031"
アイパーク駐車場 世田谷代田南口第1,珈琲専門店東亜,35.662486,139.654962,Coffee Shop,"松原5丁目3-17 (鳥居ビルB1F), 世田谷区, 東京都, 156-0043"
アイパーク駐車場 世田谷代田南口第1,Mintei (珉亭),35.662475,139.669459,Chinese Restaurant,"北沢2丁目8-8, 世田谷区, 東京都, 155-0031"
アイパーク駐車場 世田谷代田南口第1,Kotetsu (中華そば こてつ),35.66455,139.666285,Ramen Restaurant,"北沢2丁目39-13, 世田谷区, 東京都, 155-0031"
アイパーク駐車場 世田谷代田南口第1,Gyoza Ohsho (餃子の王将),35.659003,139.667257,Chinese Restaurant,"代沢5丁目36-16 (北沢湯ビル 1F), 世田谷区, 東京都, 155-0032"
アイパーク駐車場 世田谷代田南口第1,Rojiura Curry SAMURAI.,35.664653,139.666961,Japanese Curry Restaurant,"北沢3丁目31-14, 世田谷区, 東京都, 155-0031"
アイパーク駐車場 世田谷代田南口第1,Tori-soba Salt (鶏そば そると),35.65928,139.667205,Ramen Restaurant,"代沢5丁目36-13 (北村ビル 1F), 世田谷区, 東京都, 155-0032"
アイパーク駐車場 世田谷代田南口第1,萬来軒東松原,35.66247,139.655864,Chinese Restaurant,"松原5丁目1-8, 世田谷区, 東京都, 156-0043"
アイパーク駐車場 世田谷代田南口第1,くし揚げ居酒屋 くし蔵新代田店,35.661477,139.660182,Sake Bar,"代田5丁目28-4 (第二代田ニューハイツ 1F), 世田谷区, 東京都, 155-0033"
アイパーク駐車場 世田谷代田南口第1,Nishidaya (炭火焼鳥 西田屋),35.66079,139.66821,Kushikatsu Restaurant,"北沢2丁目12-2, 世田谷区, 東京都, 155-0031"
アイパーク駐車場 世田谷代田南口第1,Ozeki (オオゼキ 下北沢店),35.662057,139.668436,Grocery Store,"北沢2丁目9-5, 世田谷区, 東京都, 155-0031"
アイパーク駐車場 世田谷代田南口第1,中華そば専門店勝や,35.655528,139.653404,Ramen Restaurant,"梅丘1丁目22-11, 世田谷区, 東京都, 154-0022"
アイパーク駐車場 世田谷代田南口第1,mona records,35.660394,139.667517,Music Venue,"北沢2丁目13-5 (伊奈ビル 2F-3F), 世田谷区, 東京都, 155-0031"
アイパーク駐車場 世田谷代田南口第1,Katsuxtsu 克ッ 新代田,35.662988,139.660216,Sake Bar,"东京都世田谷区羽根木 1丁目2-9, 世田谷区, 東京都, 156-0042"
アイパーク駐車場 世田谷代田南口第1,てげてげ,35.66359,139.66032,Cocktail Bar,"羽根木1丁目4-18, 世田谷区, 東京都, 156-0042"
アイパーク駐車場 世田谷代田南口第1,Kuru・Kuru,35.662408,139.655846,Bar,"松原1丁目5-8, 世田谷区, 東京都, 156-0043"
アイパーク駐車場 世田谷代田南口第1,宮川世田谷本店,35.65969,139.660199,Unagi Restaurant,"代田5丁目10-9, 世田谷区, 東京都, 155-0033"
アイパーク駐車場 世田谷代田南口第1,Tollywood (トリウッド),35.658917,139.667621,Indie Movie Theater,"代沢5丁目32-5 (シェルボ下北沢 2F), 世田谷区, 東京都, 155-0032"
アイパーク駐車場 世田谷代田南口第1,Quintet,35.654798,139.653976,Bar,"梅丘1丁目15-9 (スペース88 B1F), 世田谷区, 東京都, 154-0022"
アイパーク駐車場 世田谷代田南口第1,ガネーシャガル代沢店,35.653646,139.666599,Indian Restaurant,"代沢4丁目27-9, 世田谷区, 東京都, 155-0032"
セブンイレブン　世田谷上野毛駅前店,鶏鷹,35.612818,139.638554,Sake Bar,"上野毛1丁目27-13, 世田谷区, 東京都, 158-0093"
セブンイレブン　世田谷上野毛駅前店,Ramen Jiro (ラーメン二郎 上野毛店),35.612393,139.638952,Ramen Restaurant,"上野毛1丁目26-16, 世田谷区, 東京都, 158-0093"
セブンイレブン　世田谷上野毛駅前店,iBEER LE SUN PALM (アイビアー･ルサンパーム 二子玉川ライズ),35.612085,139.628455,Beer Bar,"玉川2丁目21-1 (二子玉川ライズSC タウンフロント 1F), 世田谷区, 東京都, 158-0094"
セブンイレブン　世田谷上野毛駅前店,Uncle Sam’s Sandwich (UNCLE SAM’S SANDWICH),35.611666,139.637844,Bakery,"上野毛3丁目1-3, 世田谷区, 東京都, 158-0093"
セブンイレブン　世田谷上野毛駅前店,Futakotamagawa Park (二子玉川公園),35.607684,139.633498,Park,"玉川1-16, 世田谷区, 東京都, 158-0094"
セブンイレブン　世田谷上野毛駅前店,居酒屋川ちゃん,35.612479,139.638588,Sake Bar,"上野毛1丁目26-12, 世田谷区, 東京都, 158-0093"
セブンイレブン　世田谷上野毛駅前店,Starbucks (スターバックス),35.60735,139.632823,Coffee Shop,"玉川1丁目16-1 (二子玉川公園), 世田谷区, 東京都, 158-0094"
セブンイレブン　世田谷上野毛駅前店,Tsutaya Electrics (二子玉川 蔦屋家電),35.610464,139.630136,Electronics Store,"玉川1丁目14-1 (二子玉川ライズS.C テラスマーケット), 世田谷区, 東京都, 158-0094"
セブンイレブン　世田谷上野毛駅前店,Starbucks (スターバックス),35.611144,139.629356,Coffee Shop,"玉川1丁目14-1 (二子玉川蔦屋家電 1F), 世田谷区, 東京都, 158-0094"
セブンイレブン　世田谷上野毛駅前店,鴻龍 こうりゅう,35.613247,139.638415,Chinese Restaurant,"上野毛1丁目28-15, 世田谷区, 東京都, 158-0093"
セブンイレブン　世田谷上野毛駅前店,Pizzeria Mar-De-Napoli (ピッツェリア マルデナポリ),35.6139244,139.6416415,Pizzeria,"中町3丁目30-1, 世田谷区, 東京都, 158-0091"
セブンイレブン　世田谷上野毛駅前店,パピー カレーハウス,35.619038,139.6346,Japanese Curry Restaurant,"上野毛4丁目39-12, 世田谷区, 東京都, 158-0093"
セブンイレブン　世田谷上野毛駅前店,神田きくかわ 上野毛店,35.616132,139.64446,Unagi Restaurant,"中町4丁目20-13, 世田谷区, 東京都, 158-0091"
セブンイレブン　世田谷上野毛駅前店,Lunatique TokioPlage (トキオプラージュ・ルナティック),35.607473,139.631888,French Restaurant,"玉川1丁目1-4, 世田谷区, 東京都, 158-0094"
セブンイレブン　世田谷上野毛駅前店,CHICAMA,35.61344,139.62798,Italian Restaurant,"玉川2丁目24-1 (キュープラザ二子玉川), 世田谷区, 東京都, 158-0094"
セブンイレブン　世田谷上野毛駅前店,Shibu Soba (しぶそば),35.612249,139.627208,Soba Restaurant,"玉川2丁目22-13 (二子玉川駅 改札内), 世田谷区, 東京都, 158-0094"
セブンイレブン　世田谷上野毛駅前店,Mallorca (マヨルカ),35.611223,139.630413,Bakery,"玉川1丁目14-1 (二子玉川ライズS.C. テラスマーケット 2F), 世田谷区, 東京都, 158-0094"
セブンイレブン　世田谷上野毛駅前店,Futako Tamagawa Rise Shopping Center (二子玉川ライズ ショッピングセンター),35.612192,139.62842,Shopping Mall,"玉川2丁目21-1, 世田谷区, 東京都, 158-0094"
セブンイレブン　世田谷上野毛駅前店,ANTICO CAFFE AL AVIS 二子玉川店,35.612534,139.628645,Café,"玉川2丁目21-1 (二子玉川ライズSC タウンフロント 1F), 世田谷区, 東京都, 158-0094"
セブンイレブン　世田谷上野毛駅前店,L'avant Gout,35.61143,139.632734,French Restaurant,"玉川2丁目7-3 (第二秀英ビル 1F), 世田谷区, 東京都, 158-0094"
セブンイレブン　世田谷上野毛駅前店,プレミアムビアテラス,35.610868,139.630378,Beer Garden,"世田谷区, 東京都, 158-0094"
セブンイレブン　世田谷上野毛駅前店,Futakotamagawa Excel Hotel Tokyu (二子玉川エクセルホテル東急),35.610464,139.630136,Hotel,"玉川1丁目14-1 (二子玉川ライズ タワーオフィス 28-30F), 世田谷区, 東京都, 158-0094"
セブンイレブン　世田谷上野毛駅前店,The Sapphire Lounge,35.610588,139.630171,Bar,"玉川1丁目14-1 (二子玉川ライズ・ショッピングセンター・テラスマーケット4F), 世田谷区, 東京都, 158-0094"
セブンイレブン　世田谷上野毛駅前店,Asian Bistro Dai (アジアンビストロ Dai 二子玉川店),35.613277,139.627883,Chinese Restaurant,"玉川2丁目24-1 (キュープラザ二子玉川 B1F), 世田谷区, 東京都, 158-0094"
セブンイレブン　世田谷上野毛駅前店,Kokonotsuido (九つ井),35.614399,139.627743,Soba Restaurant,"玉川3丁目17-1 (玉川高島屋S・C 東館 B1F), 世田谷区, 東京都, 158-0094"
セブンイレブン　世田谷上野毛駅前店,RIGOLETTO spice market,35.612378,139.628472,Italian Restaurant,"玉川2丁目21-1 (二子玉川ライズSC ステーションマーケット 1F), 世田谷区, 東京都, 158-0094"
セブンイレブン　世田谷上野毛駅前店,たちのみワイン 世田谷STAND等々力,35.610793,139.647754,Wine Bar,"等々力3丁目22-4, 世田谷区, 東京都, 158-0082"
セブンイレブン　世田谷上野毛駅前店,大吉等々力店,35.610327,139.647494,Sake Bar,"等々力3丁目19-16, 世田谷区, 東京都, 158-0082"
セブンイレブン　世田谷上野毛駅前店,木村ぶどう園,35.604281,139.640308,Vineyard,"野毛2丁目20-16, 世田谷区, 東京都, 158-0092"
セブンイレブン　世田谷上野毛駅前店,うおいちばん,35.610269,139.647737,Sake Bar,"等々力3丁目17-6, 世田谷区, 東京都, 158-0082"
セブンイレブン　世田谷上野毛駅前店,Fer. Todoroki,35.608796,139.647131,Wine Bar,"世田谷区, 東京都, 158-0082"
セブンイレブン　世田谷上野毛駅前店,Meハウス,35.618793,139.642293,Cocktail Bar,"中町5-31, 世田谷区, 東京都, 158-0091"
セブンイレブン　世田谷上野毛駅前店,Aburi Tora (九州寿司 寿司虎),35.612287,139.628576,Sushi Restaurant,"玉川2-21-1, 世田谷区, 東京都, 158-0094"
セブンイレブン　世田谷上野毛駅前店,GONZO,35.607447,139.64753,Cocktail Bar,"等々力2丁目33-5, 世田谷区, 東京都, 158-0082"
セブンイレブン　世田谷上野毛駅前店,エビス参等々力店 (エビス参 等々力店),35.608887,139.647997,Sake Bar,"等々力3丁目5-11 (ライオンズマンション), 世田谷区, 東京都, 158-0082"
セブンイレブン　世田谷上野毛駅前店,Livebar-kuro,35.619544,139.64205,Bar,"中町4丁目8-6, 世田谷区, 東京都"
セブンイレブン　世田谷上野毛駅前店,居酒屋小川,35.607897,139.64772,Sake Bar,"等々力2丁目32-5, 世田谷区, 東京都, 158-0082"
セブンイレブン　世田谷上野毛駅前店,Kobeya Restaurant (神戸屋レストラン),35.614064,139.64233,Restaurant,"中町3丁目25-8, 世田谷区, 東京都, 158-0091"
セブンイレブン　世田谷上野毛駅前店,すし処會,35.606857,139.647236,Sushi Restaurant,"等々力2丁目34-5 (KAIビル), 世田谷区, 東京都, 158-0082"
セブンイレブン　世田谷上野毛駅前店,ヨークマート中町店,35.619869,139.641235,Grocery Store,"中町5丁目30-1, 世田谷区, 東京都, 158-0091"
セブンイレブン　世田谷上野毛駅前店,鳥貴族上野毛店,35.611472,139.638242,Bar,"上野毛 2丁目 7-15, 世田谷区, 東京都, 158-0093"
セブンイレブン　世田谷上野毛駅前店,Ippudo (一風堂),35.61227,139.628507,Ramen Restaurant,"玉川1丁目14-1 (二子玉川ライズSC テラスマーケット 2F), 世田谷区, 東京都, 158-0094"
セブンイレブン　世田谷上野毛駅前店,Naturam,35.610964,139.632474,French Restaurant,"玉川1丁目17-16, 世田谷区, 東京都, 158-0094"
セブンイレブン　世田谷上野毛駅前店,とよだ,35.608247,139.647495,Sake Bar,"等々力2丁目32-11, 世田谷区, 東京都, 158-0082"
セブンイレブン　世田谷上野毛駅前店,100 Spoons (100本のスプーン),35.610881,139.631158,Restaurant,"玉川1丁目14-1 (二子玉川ライズSC テラスマーケット 2F), 世田谷区, 東京都, 158-0094"
セブンイレブン　世田谷上野毛駅前店,Doutor Coffee Shop (ドトールコーヒーショップ),35.608858,139.647148,Café,"等々力3丁目6-16, 世田谷区, 東京都, 158-0082"
セブンイレブン　世田谷上野毛駅前店,道頓堀くくる 二子玉川東急フードショー店,35.612254,139.628438,Dessert Shop,"玉川2丁目21-1 (二子玉川ライズSC B1F 東急フードショー), 世田谷区, 東京都, 158-0094"
セブンイレブン　世田谷上野毛駅前店,やぶ森,35.608817,139.64746,Soba Restaurant,"等々力3丁目5-6, 世田谷区, 東京都, 158-0082"
セブンイレブン　世田谷上野毛駅前店,焼酎酒場いなた,35.611831,139.638537,Bar,"上野毛1丁目13-7, 世田谷区, 東京都, 158-0093"
セブンイレブン　世田谷上野毛駅前店,酒菜屋和味,35.613453,139.638796,Bar,"上野毛1丁目24-5, 世田谷区, 東京都, 158-0093"
セブンイレブン　板橋坂下1丁目店,BAR BREADLINE,35.783637,139.678598,Cocktail Bar,"蓮根2丁目19-23 (ライオンズマンション蓮根 B1F), 板橋区, 東京都, 174-0046"
セブンイレブン　板橋坂下1丁目店,Ibuki (伊吹),35.772681,139.692512,Ramen Restaurant,"前野町4丁目58-10 (見次パークマンション), 板橋区, 東京都, 174-0063"
セブンイレブン　板橋坂下1丁目店,大衆酒場 れん根や,35.783856,139.678789,Sake Bar,"蓮根2丁目31-3, 板橋区, 東京都, 174-0046"
セブンイレブン　板橋坂下1丁目店,2000-ニセン,35.774802,139.696804,Sake Bar,"小豆沢2丁目16-5 (増善ビル 1F), 板橋区, 東京都, 174-0051"
セブンイレブン　板橋坂下1丁目店,よし邑,35.782902,139.677938,Unagi Restaurant,"蓮根2丁目19-12, 板橋区, 東京都, 174-0046"
セブンイレブン　板橋坂下1丁目店,Round1 Stadium (ラウンドワンスタジアム 板橋店),35.776595,139.678633,Arcade,"相生町16-13, 板橋区, 東京都, 174-0044"
セブンイレブン　板橋坂下1丁目店,次男房,35.7794092,139.687453,Café,"坂下1丁目5-2, 板橋, 東京都, 174-0043"
セブンイレブン　板橋坂下1丁目店,丸福,35.770878,139.689802,Chinese Restaurant,"前野町4丁目17-2, 板橋, 東京都, 174-0063"
ウインガーデン,Shot Bar ON THE ROAD,35.759387,139.686448,Bar,"南常盤台2丁目16-121, 板橋区, 東京都, 174-0072"
ウインガーデン,Stand Bar 縁 Enishi,35.758427,139.688966,Sake Bar,"南常盤台1丁目29-12, 板橋区, 東京都, 174-0072"
ウインガーデン,Torikizoku (鳥貴族),35.759645,139.689957,Sake Bar,"常盤台 1丁目 2-6 (RK常盤台 2F), 板橋区, 東京都, 174-0071"
ウインガーデン,BAR and CAFE 360°,35.76162,139.675211,Bar,"板橋区, 東京都, 174-0076"
ウインガーデン,Bar Sesame,35.750959,139.688427,Bar,"大谷口北町35-5, 板橋区, 東京都, 173-0031"
ウインガーデン,Bar Serendipity (セレンディピティ),35.762164,139.674586,Cocktail Bar,"上板橋2丁目31-5 (オリンポス上板橋 2F), 板橋区, 東京都, 174-0076"
ウインガーデン,ときわ酒場,35.757528,139.684954,Sake Bar,"南常盤台2丁目10-9, 板橋, 東京都, 174-0072"
ウインガーデン,Torikizoku (鳥貴族),35.763846,139.676549,Sake Bar,"常盤台 4丁目 33-15 (タカノビル 3F), 板橋区, 東京都, 174-0071"
ウインガーデン,たぬき 常盤台店,35.759288,139.687004,Sake Bar,"南常盤台2丁目2-4, 板橋区, 東京都, 174-0072"
ウインガーデン,こっこ家はらぺこ,35.758954,139.687299,Sake Bar,"南常盤台2丁目4-16, 板橋区, 東京都, 174-0072"
ウインガーデン,Mouko Tanmen Nakamoto (蒙古タンメン中本),35.763903,139.676305,Ramen Restaurant,"常盤台4丁目33-3 (浅香ビル 2F), 板橋区, 東京都, 174-0071"
ウインガーデン,おさかなと,35.75881,139.687907,Sake Bar,"南常盤台2丁目4-20, 板橋区, 東京都, 174-0072"
ウインガーデン,やきとり彦一,35.757799,139.688272,BBQ Joint,"南常盤台1丁目31-5, 板橋, 東京都, 174-0072"
ウインガーデン,山中酒場本店,35.7586,139.688237,Sake Bar,"板橋区, 東京都, 174-0072"
ウインガーデン,みつひさご,35.758786,139.688289,Japanese Restaurant,"南常盤台2丁目1-2, 板橋区, 東京都, 174-0072"
ウインガーデン,や台ずし,35.757576,139.688793,Sake Bar,"南常盤台1丁目30-7, 板橋区, 東京都, 174-0072"
ウインガーデン,牡蠣酒場 すずきんち,35.757862,139.689262,Sake Bar,"南常盤台1丁目30-3, 板橋区, 東京都, 174-0072"
ウインガーデン,Itabashi Science Education Museum (板橋区立教育科学館),35.763419,139.679605,Education,"常盤台4丁目14-1, 板橋区, 東京都, 174-0071"
ウインガーデン,Toritetsu (とり鉄),35.758395,139.6898,Sake Bar,"南常盤台1丁目27-1 (ドミール常盤台), 板橋区, 東京都, 174-0072"
ウインガーデン,Tres Flechas,35.759645,139.689957,Cocktail Bar,"常盤台1丁目2-5 (小林ビル 2F), 板橋区, 東京都, 174-0071"
ウインガーデン,須賀乃湯,35.761435,139.676132,Sake Bar,"上板橋1丁目20-3, 板橋区, 東京都, 174-0076"
ウインガーデン,大衆酒場丸好,35.76374,139.688707,Sake Bar,"前野町2丁目14-12, 板橋区, 東京都, 174-0063"
ウインガーデン,Ninben (にんべん),35.761289,139.674795,Sake Bar,"上板橋2丁目1-12, 板橋区, 東京都, 174-0076"
ウインガーデン,大衆酒場 かぶら屋上板橋店,35.763813,139.677382,Sake Bar,"常盤台4丁目32-9, 板橋区, 東京都, 174-0071"
ウインガーデン,第七力酒蔵,35.763718,139.677226,Sake Bar,"常盤台4丁目32-12, 板橋区, 東京都, 174-0071"
ウインガーデン,東北酒場 あらた,35.762301,139.675402,Sake Bar,"上板橋1丁目24-5 (ベイ21ビル1F), 板橋区, 東京都, 174-0076"
ウインガーデン,鳥昇,35.762032,139.675003,BBQ Joint,"上板橋2丁目31-2, 板橋区, 東京都, 174-0076"
ウインガーデン,とりビアー,35.763743,139.676844,Sake Bar,"板橋区, 東京都, 174-0071"
ウインガーデン,Red Lobster (レッドロブスター),35.76067,139.675594,Japanese Family Restaurant,"桜川3丁目20-5 (川越街道), 板橋区, 東京都, 174-0075"
ウインガーデン,カラオケトマト 上板橋店,35.763891,139.676497,Karaoke Box,"常盤台4丁目33-6 (タカノビル 4F), 板橋区, 東京都, 174-0071"
ウインガーデン,居酒屋慶幸,35.76425,139.676792,Sake Bar,"常盤台4丁目31-5, 板橋区, 東京都, 174-0071"
ウインガーデン,立呑家上板橋キンパチ,35.76385,139.676809,Sake Bar,"常盤台4丁目33-14, 板橋区, 東京都, 174-0071"
ウインガーデン,よしや 常盤台店,35.757812,139.689053,Grocery Store,"南常盤台1丁目30-6, 板橋区, 東京都, 174-0072"
ウインガーデン,ヘキセンハウス,35.763968,139.690391,Bar,"前野町2丁目4-17, 板橋, 東京都, 174-0063"
ウインガーデン,八九味や,35.764047,139.690478,Sake Bar,"前野町2丁目4-17, 板橋区, 東京都, 174-0063"
ウインガーデン,aestheticism cafe&bar ROSALIA,35.757849,139.68848,Bar,"南常盤台1丁目31-4 (加藤ハイツ 2F), 板橋区, 東京都, 174-0072"
ウインガーデン,star bar,35.758542,139.68848,Bar,"板橋区, 東京都, 174-0072"
ウインガーデン,Casual Bar CoCo,35.758522,139.689123,Bar,"南常盤台1丁目28-2, 板橋区, 東京都, 174-0072"
ウインガーデン,Kappa Sushi (かっぱ寿司),35.757424,139.683304,Sushi Restaurant,"東新町1丁目48-10, 板橋区, 東京都, 174-0074"
ウインガーデン,Hungry Heaven Kamiitabashi,35.763903,139.676305,Burger Joint,"常盤台4丁目33-3 (アサカビル 2F), 板橋区, 東京都, 174-0071"
ウインガーデン,Guchoku (愚直),35.753033,139.690824,Ramen Restaurant,"大谷口北町12-7 (セブンマンション 1F), 板橋区, 東京都, 173-0031"
ウインガーデン,Menya Sou (肉そば総本店 麺屋宗),35.759332,139.690582,Ramen Restaurant,"常盤台1丁目5-6 (KAZAN常盤台 1F), 板橋区, 東京都, 174-0071"
ウインガーデン,Gyoza Ohsho (餃子の王将),35.763601,139.675767,Chinese Restaurant,"上板橋2丁目36-10, 板橋区, 東京都, 174-0076"
ウインガーデン,下頭橋ラーメン,35.763493,139.685007,Ramen Restaurant,"常盤台3丁目10-3, 板橋区, 東京都, 174-0071"
ウインガーデン,魂の中華そば,35.762751,139.675593,Ramen Restaurant,"上板橋1丁目25-10, 板橋区, 東京都, 174-0076"
ウインガーデン,Matsuya (松屋 ときわ台店),35.7596,139.690009,Restaurant,"常盤台1丁目2-5, 板橋区, 東京都, 174-0071"
ウインガーデン,Sushi Choushimaru (すし銚子丸),35.757275,139.682679,Japanese Family Restaurant,"東新町1丁目38-4, 板橋区, 東京都, 174-0074"
ウインガーデン,MOS Burger (モスバーガー),35.759574,139.688445,Burger Joint,"常盤台2丁目5-23, 板橋区, 東京都, 174-0071"
ウインガーデン,FamilyMart (ファミリーマート 板橋東新町二丁目店),35.755608,139.683443,Convenience Store,"東新町2丁目11-11, 板橋区, 東京都, 174-0074"
ウインガーデン,KFC (ケンタッキーフライドチキン),35.763859,139.67733,Fried Chicken Joint,"常盤台4丁目32-6 (ドミール常盤台 1F), 板橋区, 東京都, 174-0071"
ファミリーマート　国分寺光町店,織田島酒店 × 大陸バー 彦六,35.712662,139.437963,Sake Bar,"高木町2丁目18-32, 国分寺市, 東京都, 185-0036"
ファミリーマート　国分寺光町店,ダバ クニタチ,35.702259,139.446319,Indian Restaurant,"光町1丁目45-12, 国分寺市, 東京都, 185-0034"
ファミリーマート　国分寺光町店,和さび,35.700891,139.446392,Japanese Restaurant,"光町1丁目43-1, 国分寺市, 東京都, 185-0034"
ファミリーマート　国分寺光町店,とんかつ ひらよし,35.70125,139.446685,Tonkatsu Restaurant,"光町1丁目40-5, 国分寺市, 東京都, 185-0034"
ファミリーマート　国分寺光町店,ヨリミチ ラウンジ,35.714906,139.43697,Lounge,"若葉町1丁目17-1, 立川市, 東京都, 190-0001"
ファミリーマート　国分寺光町店,Komeda's Coffee (コメダ珈琲店),35.69978,139.447053,Coffee Shop,"北1丁目5-6, 国立市, 東京都, 186-0001"
ファミリーマート　国分寺光町店,MOS Burger (モスバーガー 国立北口店),35.700536,139.446359,Burger Joint,"光町1丁目42-19, 国分寺市, 東京都, 185-0034"
ファミリーマート　国分寺光町店,らーめん味噌まる,35.701341,139.446581,Ramen Restaurant,"光町1丁目39-23, 国分寺市, 東京都, 185-0034"
ファミリーマート　国分寺光町店,circus,35.698809,139.441105,Café,"中1丁目1-17 (セントラルハイツ106), 国立市, 東京都, 186-0004"
ファミリーマート　国分寺光町店,100時間カレーAMAZING 国立店,35.700306,139.44636,Japanese Curry Restaurant,"光町1丁目42-20, 国分寺市, 東京都, 185-0034"
ファミリーマート　国分寺光町店,Gyomu Super (業務スーパー),35.710306,139.433697,Grocery Store,"西町3丁目29-23, 国分寺市, 東京都, 185-0035"
ファミリーマート　国分寺光町店,wine bar ulalaca kunitachi (ワインバルうららかくにたち),35.70165,139.446667,Bar,"光町1丁目39-19 (MSYビル 1F), 国分寺市, 東京都, 185-0034"
ファミリーマート　国分寺光町店,Lawson Store 100 (ローソンストア100 国分寺富士本二丁目店),35.708912,139.448288,Convenience Store,"富士本2丁目5-3, 国分寺市, 東京都, 185-0031"
ファミリーマート　国分寺光町店,居酒屋 ひろ家,35.712812,139.440264,Sake Bar,"高木町1丁目22-22, 国分寺市, 東京都, 185-0036"
ファミリーマート　国分寺光町店,ラヴィーニュ,35.69954,139.444857,Bar,"北1丁目7-21, 国立市, 東京都, 186-0001"
ファミリーマート　国分寺光町店,La Vigne,35.699523,139.444788,Bar,"北1丁目7-21, 国立市, 東京都, 186-0001"
ファミリーマート　国分寺光町店,焼酎パブにぐるま,35.699418,139.44747,Bar,"北1丁目6-8, 国立市, 東京都, 186-0001"
ファミリーマート　国分寺光町店,Allemande Hiro,35.710525,139.4406,Bakery,"高木町2丁目6-5, 国分寺市, 東京都, 185-0036"
ファミリーマート　国分寺光町店,Studio&Cafe Ko Ku Bu,35.708586,139.446455,Café,"富士本3丁目5-1, 国分寺市, 東京都, 185-0031"
ファミリーマート　国分寺光町店,カフェ・ルミエール,35.702895,139.443203,Tea Room,"光町2丁目8-38 (鉄道総合技術研究所内), 国分寺市, 東京都, 185-8540"
ファミリーマート　国分寺光町店,Dining 光,35.702635,139.443325,Cafeteria,"光町2丁目8-38 (鉄道総合技術研究所), 国分寺市, 東京都, 185-0034"
ファミリーマート　国分寺光町店,勝蔵,35.705241,139.43688,Tonkatsu Restaurant,"西町2丁目32-1, 国分寺市, 東京都, 185-0035"
ファミリーマート　国分寺光町店,south-park,35.699449,139.446639,Food Truck,"国分寺市, 東京都"
ファミリーマート　国分寺光町店,KITCHEN HUIT,35.709007,139.448444,Deli,"国分寺市, 東京都, 185-0031"
ファミリーマート　国分寺光町店,中藤洋蘭園,35.711298,139.436618,Flower Store,"西町3丁目10-2, 国分寺市, 東京都, 185-0035"
ファミリーマート　国分寺光町店,とりいづか,35.702202,139.446561,Teishoku Restaurant,"光町1丁目38-23, 国分寺市, 東京都, 185-0034"
ファミリーマート　国分寺光町店,MARZO,35.702235,139.4467,Bar,"光町1丁目38-27, 国分寺市, 東京都, 185-0034"
ファミリーマート　国分寺光町店,萬月,35.702066,139.446718,Bar,"光町1丁目38-33, 国分寺市, 東京都, 185-0034"
ファミリーマート　国分寺光町店,鶏’s,35.701688,139.447065,Kushikatsu Restaurant,"光町1丁目39-21 (マーキュリーマンション 1F), 国分寺市, 東京都, 185-0034"
ファミリーマート　国分寺光町店,天ぷら やました,35.701688,139.447065,Tempura Restaurant,"光町1丁目39-21, 国分寺市, 東京都, 185-0034"
ファミリーマート　国分寺光町店,アグレアブル・ミュゼ,35.700541,139.44494,Clothing Store,"光町1丁目42-8, 国分寺市, 東京都, 185-0034"
ファミリーマート　国分寺光町店,嶋寿司本店,35.710423,139.450966,Sushi Restaurant,"戸倉3丁目47-6 (光ショッピングセンター内), 国分寺市, 東京都, 185-0003"
ファミリーマート　国分寺光町店,Patisserie ICHIRIN,35.710689,139.43361,Bakery,"西町3丁目31-1, 国分寺市, 東京都, 185-0035"
ファミリーマート　国分寺光町店,Organic Garden North,35.699549,139.443698,Café,"北1丁目11-1, 国立市, 東京都, 186-0001"
ファミリーマート　国分寺光町店,ほっこりごはん ひよこ豆,35.699510648120345,139.44321950794088,Teishoku Restaurant,"北1丁目12-2 (松澤ビル 1F), 国立市, 東京都, 186-0001"
ファミリーマート　国分寺光町店,函館美鈴珈琲 nonowa国立店,35.699247,139.44484,Bakery,"北1丁目14 (nonowa国立WEST), 国立市, 東京都, 186-0001"
ファミリーマート　国分寺光町店,らーめん さんさん,35.699418,139.44747,Ramen Restaurant,"北1丁目6-8, 国立市, 東京都, 186-0001"
ファミリーマート　国分寺光町店,日本一,35.699247,139.44484,Deli,"北1丁目14-17 (nonowa国立WEST 1F), 国立市, 東京都, 186-0001"
ファミリーマート　国分寺光町店,天好,35.702075,139.450593,Tempura Restaurant,"富士本1丁目21-44, 国分寺市, 東京都, 185-0031"
ファミリーマート　国分寺光町店,Unicorn Bakery,35.698881,139.441641,Bakery,"中1丁目1-14 (松葉荘 1F), 国立市, 東京都, 186-0004"
ファミリーマート　国分寺光町店,日本橋屋長兵衛 Nonowa国立店,35.699092,139.445637,Wagashi Place,"北1丁目14-1 (nonowa国立 WEST), 国立市, 東京都, 186-0004"
ファミリーマート　国分寺光町店,shujiworks 手縫い革工房,35.702147,139.45113,Leather Goods Store,"日吉町2丁目15-16, 国分寺市, 東京都"
ファミリーマート　国分寺光町店,銀のさら立川店,35.702788,139.433169,Sushi Restaurant,"西町1丁目25-1, 国分寺市, 東京都, 185-0035"
ファミリーマート　国分寺光町店,国立コーヒーロースター,35.699872,139.447918,Café,"北1丁目5-15 (アパルト国立 1F), 国立市, 東京都, 186-0001"
ファミリーマート　国分寺光町店,小春日和,35.698536,139.443805,Deli,"中1丁目8-22, 国立市, 東京都, 186-0004"
ファミリーマート　東水元二丁目店,Sports Cafe&Bar Brave,35.771899,139.868638,Sports Bar,"東金町2丁目18-1, 葛飾区, 東京都, 125-0041"
ファミリーマート　東水元二丁目店,Ao z Bar,35.770465,139.868687,Bar,"東金町1丁目20-5 (AOIビル1F), 葛飾区, 東京都, 125-0041"
ファミリーマート　東水元二丁目店,SHISENYA‐BAR 金町,35.769965,139.86926,Bar,"東金町1丁目21-15, 葛飾区, 東京都, 125-0041"
ファミリーマート　東水元二丁目店,Torikizoku (鳥貴族 金町南口店),35.76885,139.873105,Sake Bar,"金町 6丁目 11-1 (グリーンヒル仲田 2F), 葛飾区, 東京都, 125-0042"
ファミリーマート　東水元二丁目店,Atelier Dasha (アトリエダーシャ),35.780253,139.86704,Bakery,"南水元4丁目27-9, 葛飾区, 東京都, 125-0035"
ファミリーマート　東水元二丁目店,cafe・hakuta,35.772019,139.869387,Café,"東金町1丁目27-11 (シラユリビル101), 葛飾区, 東京都, 125-0041"
ファミリーマート　東水元二丁目店,中華居酒屋味来,35.77617,139.867378,Sake Bar,"葛飾区, 東京都, 125-0033"
ファミリーマート　東水元二丁目店,Pizzeria Da Tasaki,35.768925,139.872931,Italian Restaurant,"金町6丁目11-1, 葛飾区, 東京都, 125-0042"
ファミリーマート　東水元二丁目店,Starbucks (スターバックス),35.769086,139.872391,Coffee Shop,"金町6丁目4-2 (金町駅南口 ラヴィクレール金町), 葛飾区, 東京都, 125-0042"
ファミリーマート　東水元二丁目店,ガキ大将金町店,35.770558,139.871768,Sake Bar,"東金町1丁目41-4, 葛飾区, 東京都, 125-0041"
ファミリーマート　東水元二丁目店,風東,35.770813,139.873336,Bar,"東金町3丁目18-14, 葛飾区, 東京都, 125-0041"
ファミリーマート　東水元二丁目店,牛タン大衆酒場 べこたん 金町,35.770529,139.87189,Sake Bar,"東金町1丁目41-9 (花しろビル1F), 葛飾区, 東京都, 125-0041"
ファミリーマート　東水元二丁目店,金町酒場東や,35.770573,139.868652,Sake Bar,"東金町1丁目20-5 (幸ビル 1階), 葛飾区, 東京都, 125-0041"
ファミリーマート　東水元二丁目店,ミライザカ,35.770191,139.870949,Sake Bar,"東金町1丁目43-1 (常総金町ビル 4F), 葛飾区, 東京都, 125-0041"
ファミリーマート　東水元二丁目店,ラーメン 三浦家,35.768732,139.871381,Ramen Restaurant,"金町6丁目5-1 (ベルトーレ金町 1F), 葛飾区, 東京都, 125-0042"
ファミリーマート　東水元二丁目店,Shitara (シータラ 金町店),35.77161,139.868881,Indian Restaurant,"東金町1丁目17-2 (塚本ビル 1F), 葛飾区, 東京都, 125-0041"
ファミリーマート　東水元二丁目店,立ち呑み Waraku,35.768834,139.873035,Sake Bar,"金町6丁目11-1, 葛飾区, 東京都, 125-0042"
ファミリーマート　東水元二丁目店,とんかつ喝,35.77018,139.868216,Tonkatsu Restaurant,"東金町1丁目11-3 (伴ビル2F), 葛飾区, 東京都, 125-0041"
ファミリーマート　東水元二丁目店,うどん 蓮,35.78095,139.863141,Japanese Restaurant,"水元3丁目10-17, 葛飾区, 東京都, 125-0032"
ファミリーマート　東水元二丁目店,Malt Bar Epinards,35.771941,139.868325,Bar,"東金町2丁目18-1, 葛飾区, 東京都, 125-0041"
ファミリーマート　東水元二丁目店,BARBiko,35.771601,139.869334,Bar,"東金町1丁目27-1, 葛飾区, 東京都, 125-0041"
ファミリーマート　東水元二丁目店,DINING BAR ZERO ONE,35.771201,139.868375,Bar,"東金町1丁目13-10, 葛飾区, 東京都, 125-0041"
ファミリーマート　東水元二丁目店,DINING BAR ZEROONE ダイニングバー ゼロワン,35.771185,139.868305,Cocktail Bar,"東金町1丁目13-10, 葛飾区, 東京都, 125-0041"
ファミリーマート　東水元二丁目店,BAR SMILE LIFE,35.770699,139.870898,Bar,"東金町1丁目37-1 (Kプラザビル 2F), 葛飾区, 東京都, 125-0041"
ファミリーマート　東水元二丁目店,bar sasaya バー ササヤ,35.770568,139.869366,Cocktail Bar,"東金町1丁目25-3, 葛飾区, 東京都, 125-0041"
ファミリーマート　東水元二丁目店,Tully's Coffee (Tully's Coffee Kanamachi Station South Entrance),35.76826,139.871832,Coffee Shop,"金町6丁目2-1 (金町駅南口), 葛飾区, 東京都, 125-0042"
ファミリーマート　東水元二丁目店,Saizeriya (サイゼリヤ),35.768186,139.871031,Italian Restaurant,"金町6丁目2-1 (ヴィナシス金町 2F), 葛飾区, 東京都, 125-0042"
ファミリーマート　東水元二丁目店,Dining bar bloom,35.768754,139.869762,Bar,"金町5丁目31-15 (丸山ビル4F), 葛飾区, 東京都, 125-0042"
ファミリーマート　東水元二丁目店,Komeda's Coffee (コメダ珈琲店),35.768691,139.870719,Café,"金町6丁目5-1 (金町駅南口 ベルトーレ金町201), 葛飾区, 東京都, 125-0042"
ファミリーマート　東水元二丁目店,Domino's Pizza (ドミノ・ピザ 東金町店),35.771559,139.876734,Pizzeria,"東金町6丁目12-1, 葛飾区, 東京都, 125-0041"
ファミリーマート　東水元二丁目店,めったんず,35.775311,139.871816,Sake Bar,"東金町2丁目30-2, 葛飾区, 東京都, 125-0041"
ファミリーマート　東水元二丁目店,Jonathan's (ジョナサン),35.778317,139.869612,Japanese Family Restaurant,"東水元2丁目9-5, 葛飾区, 東京都, 125-0033"
ファミリーマート　東水元二丁目店,居酒屋叉来家,35.774869,139.87117,Sake Bar,"東金町2丁目30-8, 葛飾区, 東京都, 125-0041"
ファミリーマート　東水元二丁目店,Kushikatsu Tanaka (串カツ田中),35.770126,139.869695,Bar,"東金町1丁目24-5, 葛飾区, 東京都, 125-0041"
ファミリーマート　東水元二丁目店,Daiso (ダイソー),35.767835,139.871257,Convenience Store,"金町6丁目2-1 (ヴィナシス金町 2F), 葛飾区, 東京都, 125-0042"
ファミリーマート　東水元二丁目店,居酒屋和,35.773261,139.87195,Sake Bar,"東金町3丁目33-7, 葛飾区, 東京都, 125-0041"
ファミリーマート　東水元二丁目店,スナックボケ,35.772798,139.871948,Bar,"東金町3丁目32-6, 葛飾区, 東京都, 125-0041"
ファミリーマート　東水元二丁目店,居酒屋 まこと,35.772153,139.872156,Sake Bar,"東金町3丁目31-8, 葛飾区, 東京都, 125-0041"
ファミリーマート　東水元二丁目店,TONGA TONGA CAFE,35.771949,139.868847,Bar,"東金町1丁目17-4, 葛飾区, 東京都, 125-0041"
ファミリーマート　東水元二丁目店,Tokkuri (居酒屋 とっくり),35.771917,139.872869,Sake Bar,"東金町3丁目30-2 (ロイヤルコーポ), 葛飾区, 東京都, 125-0041"
ファミリーマート　東水元二丁目店,biko,35.771568,139.869194,Bar,"葛飾区, 東京都"
ファミリーマート　東水元二丁目店,みやご,35.77159,139.86855,BBQ Joint,"東金町1丁目16-2, 葛飾区, 東京都, 125-0041"
ファミリーマート　東水元二丁目店,飲み食い処如月,35.771486,139.868846,Bar,"東金町1丁目17-1, 葛飾区, 東京都, 125-0041"
ファミリーマート　東水元二丁目店,Seria (セリア),35.773693,139.8618,Convenience Store,"新宿6丁目2400-24 (いなげや金町店 2F), 葛飾区, 東京都, 125-0051"
ファミリーマート　東水元二丁目店,和風ダイニング みなみ,35.771267,139.868654,Bar,"東金町1丁目19-8, 葛飾区, 東京都, 125-0041"
ファミリーマート　東水元二丁目店,うつぎ,35.768594,139.873487,Karaoke Bar,"東金町1丁目15-9, 葛飾区, 東京都, 125-0041"
ファミリーマート　東水元二丁目店,個室と地鶏専門店鶏善金町店,35.770823,139.870933,Bar,"東金町1丁目37-2, 葛飾区, 東京都, 125-0041"
ファミリーマート　東水元二丁目店,金町 つむぎ,35.770823,139.870933,Bar,"東金町1丁目37-2, 葛飾区, 東京都, 125-0041"
ファミリーマート　東水元二丁目店,金町スタイル,35.770699,139.870898,Bar,"東金町1丁目37-1 (金町イーストビル　１Ｆ), 葛飾区, 東京都, 125-0041"
ファミリーマート　東水元二丁目店,Kanamachi style,35.770699,139.870898,Bar,"東金町1丁目37-1, 葛飾区, 東京都, 125-0041"
中村橋資材置き場,鳥貴族中村橋店,35.736578,139.63833,Sake Bar,"中村北 3丁目 23-5 (B1), 練馬区, 東京都, 176-0023"
中村橋資材置き場,Bar FRONTIER,35.735646,139.630557,Bar,"貫井3丁目8-17 (内田ビル1F), 練馬区, 東京都, 176-0021"
中村橋資材置き場,bar U`Jadde (バール ウギャッデ),35.743756,139.648306,Wine Bar,"練馬4丁目18-15, 練馬区, 東京都, 176-0001"
中村橋資材置き場,ANCORA (アンコラ),35.741045,139.636471,Wine Bar,"貫井5丁目3-2, 練馬区, 東京都, 176-0021"
中村橋資材置き場,Niwa no Yu (豊島園 庭の湯),35.744181,139.647906,Hot Spring,"向山3丁目25-1, 練馬区, 東京都, 176-0022"
中村橋資材置き場,元祖やきとり串八珍中村橋店,35.738278,139.637705,Sake Bar,"貫井2丁目3-1 (練月館中村橋1階), 練馬区, 東京都, 176-0021"
中村橋資材置き場,なんちゃら酒場 ともえ,35.738278,139.637705,Sake Bar,"貫井2丁目3-1 (沢野ビル 3F), 練馬区, 東京都, 176-0021"
中村橋資材置き場,菜香村箸,35.738059,139.637514,Sake Bar,"貫井1丁目7-28 (髙山ビル B1F), 練馬区, 東京都, 176-0021"
中村橋資材置き場,でんまる,35.737313,139.638989,Sake Bar,"向山1丁目15-3 (ブリザーヴ中村橋Ⅱ 103), 練馬区, 東京都, 176-0022"
中村橋資材置き場,九州酒場 ひとぼし,35.736578,139.63833,Sake Bar,"中村北3-23-6 (青木ビル 2F), 練馬区, 東京都, 176-0023"
中村橋資材置き場,極味中村橋店,35.735934,139.638539,Sake Bar,"中村北3丁目22-7, 練馬区, 東京都, 176-0024"
中村橋資材置き場,Kappa Sushi (かっぱ寿司),35.739702,139.638103,Sushi Restaurant,"貫井2丁目4-15, 練馬区, 東京都, 176-0021"
中村橋資材置き場,たかけー邸,35.736637,139.643658,Bar,"中村北2丁目15-6, 練馬区, 東京都, 176-0023"
中村橋資材置き場,Bar Smoke,35.740943,139.636766,Whisky Bar,"貫井5丁目1-7 (日興パレス中村橋B1-2), 練馬区, 東京都, 176-0021"
中村橋資材置き場,THE GIANT STEP,35.740839,139.648914,Burger Joint,"練馬4丁目12-17, 練馬区, 東京都, 176-0001"
中村橋資材置き場,Luna Rossa (ルナロッサ),35.741429,139.636384,Cocktail Bar,"貫井5丁目4-2, 練馬区, 東京都, 176-0021"
中村橋資材置き場,タッポスト チャオラ,35.7427,139.648723,Bar,"練馬4丁目15-18, 練馬区, 東京都, 176-0001"
中村橋資材置き場,気楽な器,35.734177,139.643034,Gastropub,"中村2丁目14-12 (スリービーマンション 1F), 練馬区, 東京都, 176-0024"
中村橋資材置き場,とねっこ,35.742373,139.647595,Sake Bar,"練馬4丁目10-14, 練馬区, 東京都, 176-0001"
中村橋資材置き場,笑天やきとり 一輝,35.742712,139.648532,Sake Bar,"練馬4丁目15-15, 練馬区, 東京都, 176-0001"
中村橋資材置き場,炭火焼やきとり 鳥定,35.736206,139.630002,Sake Bar,"貫井3丁目15-14, 練馬区, 東京都, 176-0021"
中村橋資材置き場,Toshimarin としまりん,35.743782,139.648896,Bar,"东京都练马区练马4丁目22-11, 練馬区, 東京都, 176-0001"
中村橋資材置き場,竹山,35.7348,139.630645,Sake Bar,"中野区, 東京都, 165-0031"
中村橋資材置き場,や台ずし 豊島園駅前町,35.742201,139.649296,Sake Bar,"練馬4丁目25-13, 練馬区, 東京都, 176-0001"
中村橋資材置き場,Gyoza no Manshu (ぎょうざの満洲 練馬富士見台店),35.735324,139.630662,Chinese Restaurant,"上鷺宮3丁目17-12, 中野区, 東京都, 165-0031"
中村橋資材置き場,手打そば 萬月,35.743537,139.648115,Soba Restaurant,"練馬4丁目18-13 (篠田ビル205), 練馬区, 東京都, 176-0001"
中村橋資材置き場,Nerima Art Museum (練馬区立美術館),35.736972,139.636109,Art Museum,"練馬区貫井1丁目36-16, 練馬区, 東京都, 176-0021"
中村橋資材置き場,HEROES BAR,35.737068,139.629012,Bar,"貫井3丁目14-12 (富士見台マンション), 練馬区, 東京都, 176-0021"
中村橋資材置き場,Matsuya (松屋 中村橋店),35.737481,139.638,Restaurant,"貫井2丁目2-5 (ムツワビル 1F), 練馬区, 東京都, 176-0021"
中村橋資材置き場,Domino's Pizza (ドミノ・ピザ 中村橋店),35.736254,139.640118,Pizzeria,"中村北3丁目10-9, 練馬区, 東京都, 176-0023"
中村橋資材置き場,Ramen Kagetsu Arashi (らあめん花月嵐),35.737222,139.638122,Ramen Restaurant,"貫井1丁目1-5, 練馬区, 東京都, 176-0021"
中村橋資材置き場,Can Do (キャンドゥ 中村橋駅前店),35.737217,139.637861,Discount Store,"貫井1丁目2-1 (サンパレスビル 2F), 練馬区, 東京都, 176-0021"
中村橋資材置き場,Red Baron (レッドバロン 練馬店),35.744373,139.630083,Motorcycle Dealership,"貫井5丁目29-9, 練馬区, 東京都, 176-0021"
中村橋資材置き場,とんかつ てんぷら さくり,35.738859,139.637479,Bar,"貫井2丁目3-6, 練馬区, 東京都, 176-0021"
中村橋資材置き場,居酒屋 のにゃん,35.741004,139.636783,Sake Bar,"貫井5丁目1-8, 練馬区, 東京都, 176-0021"
中村橋資材置き場,洋風呑み処 OM OM,35.738645,139.637548,Bar,"貫井2丁目3-5, 練馬区, 東京都, 176-0021"
中村橋資材置き場,アポロ,35.738645,139.637548,Bar,"貫井2丁目3-5, 練馬区, 東京都, 176-0021"
中村橋資材置き場,酒場 銀,35.738514,139.637563,Sake Bar,"東京都練馬区貫井2-3-2 1F, 練馬区, 東京都, 176-0021"
中村橋資材置き場,や台ずし 中村橋駅前町,35.738426,139.637358,Sake Bar,"貫井1丁目7-25 (原田ビル 1F), 練馬区, 東京都, 176-0021"
中村橋資材置き場,鉄板ダイニング扇,35.738319,139.637392,Bar,"貫井1丁目7-26, 練馬区, 東京都, 176-0021"
中村橋資材置き場,Doutor Coffee Shop (ドトールコーヒーショップ),35.736656,139.637445,Coffee Shop,"中村北4丁目2-14 (Emio中村橋), 練馬区, 東京都, 176-0023"
中村橋資材置き場,がーるずばー りり,35.737164,139.638365,Bar,"貫井1丁目1-2, 練馬区, 東京都, 176-0021"
中村橋資材置き場,お食事と酒の大天,35.737089,139.637566,Sake Bar,"貫井1丁目2-1 (中村橋サンパレス1F), 練馬区, 東京都, 176-0021"
中村橋資材置き場,Chiekoの部屋,35.737233,139.636959,Bar,"練馬区, 東京都"
中村橋資材置き場,ひとぼし 中村橋総本店,35.736731,139.638243,Bar,"中村北3丁目23-6, 練馬区, 東京都, 176-0024"
中村橋資材置き場,中村橋漁師のあぶり家,35.736388,139.638018,Sake Bar,"中村北4丁目2-3, 練馬区, 東京都, 176-0023"
中村橋資材置き場,CoCo Ichibanya (CoCo壱番屋),35.736091,139.638712,Restaurant,"中村北3丁目22-10 (中村橋駅前通り 友伸ビル 1F), 練馬区, 東京都, 176-0024"
中村橋資材置き場,Baskin-Robbins (サーティワンアイスクリーム),35.742312,139.648549,Ice Cream Parlor,"練馬4丁目15-20 (ユナイテッドシネマとしまえん1F), 練馬区, 東京都, 176-0001"
中村橋資材置き場,ロード,35.742831,139.631854,Bar,"貫井4丁目16-10, 練馬区, 東京都, 176-0021"
中村橋資材置き場,バー マルカート,35.737654,139.629047,Bar,"貫井3丁目32-5, 練馬区, 東京都, 176-0021"
リバーサイド立川,Totoyamichi (魚屋路),35.691299,139.39677,Sushi Restaurant,"富士見町7丁目38-6, 立川市, 東京都, 190-0013"
リバーサイド立川,ふじみ,35.691382,139.395439,Chinese Restaurant,"富士見町7丁目227-3, 立川市, 東京都, 190-0013"
リバーサイド立川,Marugame Seimen (丸亀製麺),35.693801,139.38656,Soba Restaurant,"郷地町3丁目1-3 (新奥多摩街道南側), 昭島市, 東京都, 196-0032"
リバーサイド立川,厨 はや川,35.697689,139.399564,Bar,"富士見町4丁目7-9, 立川市, 東京都, 190-0013"
リバーサイド立川,小料理暖,35.697733,139.401899,Bar,"富士見町5丁目3-14, 立川市, 東京都, 190-0013"
リバーサイド立川,中華そば くるま,35.694722,139.39636,Ramen Restaurant,"富士見町7丁目13-8, 立川市, 東京都, 190-0013"
リバーサイド立川,Kuruma (くるま),35.694672,139.396152,Ramen Restaurant,"富士見町7丁目13-8, 立川市, 東京都, 190-0013"
リバーサイド立川,トワーズ立川店,35.692715,139.390195,Pachinko Parlor,"富士見町6丁目47-17, 立川市, 東京都, 190-0013"
リバーサイド立川,NaNairo PasTa,35.698571,139.396518,Italian Restaurant,"富士見町3丁目1-1 (新井ビル1F), 立川市, 東京都, 190-0013"
リバーサイド立川,立川市役所歴史民俗資料館・古民家園,35.696863,139.38992,Government Department,"富士見町3丁目12-34, 立川市, 東京都, 190-0013"
リバーサイド立川,むぎこ製ぱん所,35.698248,139.399009,Bakery,"富士見町1丁目6-4, 立川市, 東京都, 190-0013"
リバーサイド立川,たんぽぽ,35.699028,139.396257,Restaurant,"富士見町1丁目18-10 (ワコーレ立川 1F), 立川市, 東京都, 190-0013"
リバーサイド立川,そば処安田屋,35.698408,139.40015,Soba Restaurant,"富士見町2丁目28-5, 立川市, 東京都, 190-0013"
リバーサイド立川,街カフェ Cocoon,35.699793,139.394404,Café,"富士見町1丁目26-10, 立川市, 東京都, 190-0013"
リバーサイド立川,Baraju,35.689379,139.391919,Café,"日野市, 東京都"
UR賃貸住宅 エステート西台,BarSo‐ma,35.76759,139.663662,Bar,"北町2丁目41-3 (北町ビル B1F), 練馬区, 東京都, 179-0081"
UR賃貸住宅 エステート西台,居酒屋ほろよい,35.766787,139.669984,Sake Bar,"上板橋3丁目26-15, 板橋区, 東京都, 174-0076"
UR賃貸住宅 エステート西台,居酒屋丸正,35.771647,139.662984,Sake Bar,"板橋区, 東京都, 175-0083"
UR賃貸住宅 エステート西台,大衆酒場食堂ななつぼし,35.767226,139.663107,Sake Bar,"北町2丁目17-15 (北町アーケード), 練馬区, 東京都, 179-0081"
UR賃貸住宅 エステート西台,ミライザカ,35.76841,139.662013,Sake Bar,"北町2丁目38-15 (大宏第一ビル 2F), 練馬区, 東京都, 179-0081"
UR賃貸住宅 エステート西台,Uotami (魚民),35.768958,139.661648,Sake Bar,"徳丸2丁目3-1 (徳丸スクエア 2F), 板橋区, 東京都, 175-0083"
UR賃貸住宅 エステート西台,炭屋 えんけい,35.769007,139.660884,Sake Bar,"徳丸3丁目1-25, 板橋区, 東京都, 175-0083"
UR賃貸住宅 エステート西台,やきとん丈屋東武練馬店,35.768211,139.661179,Sake Bar,"北町2丁目37-2, 練馬区, 東京都, 179-0081"
UR賃貸住宅 エステート西台,まかない家,35.768974,139.660745,Bar,"徳丸3丁目1-3, 板橋区, 東京都, 175-0083"
UR賃貸住宅 エステート西台,鶏炭,35.766709,139.661666,Sake Bar,"北町2丁目19-9 (北町マンション), 練馬区, 東京都, 179-0081"
UR賃貸住宅 エステート西台,棟梁,35.766709,139.661666,Sake Bar,"北町2丁目19-9, 練馬区, 東京都, 179-0081"
UR賃貸住宅 エステート西台,炭火串焼串まさ,35.768292,139.659582,BBQ Joint,"北町2丁目29-11, 練馬区, 東京都, 179-0081"
UR賃貸住宅 エステート西台,のみくいや仁,35.769674,139.659321,Sake Bar,"徳丸3丁目16-14, 板橋区, 東京都, 175-0083"
UR賃貸住宅 エステート西台,旬彩一庵,35.762814,139.667379,Sake Bar,"錦2丁目11-11, 練馬区, 東京都, 179-0082"
UR賃貸住宅 エステート西台,居酒BAR TKO,35.768409,139.66104,Bar,"北町2丁目36-27, 練馬区, 東京都, 179-0081"
UR賃貸住宅 エステート西台,Komeda's Coffee (コメダ珈琲店),35.768649,139.661561,Café,"徳丸2丁目2-14 (エキア東武練馬 2F), 板橋区, 東京都, 175-0083"
UR賃貸住宅 エステート西台,食い処BAR TRENTE,35.76484,139.676114,Bar,"板橋区, 東京都, 174-0076"
UR賃貸住宅 エステート西台,Baskin-Robbins (サーティワンアイスクリーム),35.770208,139.660831,Ice Cream Parlor,"徳丸2丁目6-1 (イオン板橋SC 3F), 板橋区, 東京都, 175-0083"
UR賃貸住宅 エステート西台,Ootoya (大戸屋),35.769025,139.661926,Teishoku Restaurant,"徳丸2丁目3-1 (東武練馬駅前 徳丸スクエア 2F), 板橋区, 東京都, 175-0083"
UR賃貸住宅 エステート西台,Gyoza no Mansyu (ぎょうざの満洲 東武練馬南口店),35.767396,139.663089,Chinese Restaurant,"北町2丁目17-12 (川島ビル), 練馬区, 東京都, 179-0081"
UR賃貸住宅 エステート西台,CoCo Ichibanya (CoCo壱番屋),35.769119,139.661109,Restaurant,"徳丸2丁目3-2 (東武練馬駅前 ブックス塩野ビル 1F), 板橋区, 東京都, 175-0083"
UR賃貸住宅 エステート西台,ひとやすみ ポン,35.770487,139.670956,Bar,"若木2丁目34-15, 板橋区, 東京都, 174-0065"
UR賃貸住宅 エステート西台,MOS Burger (モスバーガー),35.770225,139.660901,Burger Joint,"徳丸2丁目6-1 (イオン板橋 3F), 板橋区, 東京都, 175-0083"
UR賃貸住宅 エステート西台,Sutadonya (伝説のすた丼屋),35.768974,139.660745,Donburi Restaurant,"徳丸3丁目1-3 (江が和ビル 1F), 板橋区, 東京都, 175-0083"
UR賃貸住宅 エステート西台,Marugame Seimen (丸亀製麺),35.770237,139.66071,Udon Restaurant,"徳丸2丁目6-1 (イオン板橋SC 3F), 板橋区, 東京都, 175-0083"
UR賃貸住宅 エステート西台,Kushikatsu Tanaka (串カツ田中),35.769349,139.660137,Bar,"徳丸3丁目1-20, 板橋区, 東京都, 175-0083"
UR賃貸住宅 エステート西台,和食処飃,35.77208,139.663106,Bar,"徳丸1丁目33-11, 板橋区, 東京都, 175-0083"
UR賃貸住宅 エステート西台,きんぶた,35.76833,139.664583,Sake Bar,"板橋区, 東京都, 175-0083"
UR賃貸住宅 エステート西台,丸正,35.771647,139.662984,Bar,"徳丸1丁目33-7, 板橋区, 東京都, 175-0083"
UR賃貸住宅 エステート西台,AEON Lounge (イオンラウンジ),35.770138,139.660293,Café,"徳丸2丁目6-1 (イオン板橋SC 3F), 板橋区, 東京都, 175-0083"
UR賃貸住宅 エステート西台,スナックココロ,35.766564,139.66493,Bar,"北町1丁目28-19, 練馬区, 東京都, 179-0081"
UR賃貸住宅 エステート西台,バー ソーマ,35.767466,139.663628,Bar,"北町2丁目41-3, 練馬区, 東京都, 179-0081"
UR賃貸住宅 エステート西台,Gindaco (築地銀だこ),35.77027,139.660849,"Cafe, Coffee, and Tea House","徳丸2丁目6-1 (イオン板橋SC 3F), 板橋区, 東京都, 175-0083"
UR賃貸住宅 エステート西台,スナックどれみ,35.767973,139.662603,Bar,"北町2丁目40-1, 練馬区, 東京都, 179-0081"
UR賃貸住宅 エステート西台,奴,35.767226,139.663107,Bar,"北町2丁目17-15, 練馬区, 東京都, 179-0081"
UR賃貸住宅 エステート西台,ジャンボ酒場,35.76862,139.661683,Sake Bar,"練馬区, 東京都, 179-0081"
UR賃貸住宅 エステート西台,春夏冬‐あきない‐,35.768084,139.661856,Bar,"北町2丁目38-2, 練馬区, 東京都, 179-0081"
UR賃貸住宅 エステート西台,天晴酒場,35.769181,139.661127,Sake Bar,"徳丸2丁目3-3, 板橋区, 東京都, 175-0083"
UR賃貸住宅 エステート西台,金太郎,35.770299,139.660727,Bar,"徳丸2丁目2-7, 板橋区, 東京都, 175-0083"
UR賃貸住宅 エステート西台,九州酒場 ひとぼし 東武練馬店,35.769164,139.661057,Bar,"徳丸2丁目3-3, 板橋区, 東京都, 175-0083"
UR賃貸住宅 エステート西台,一球酒場東武練馬店,35.768277,139.661457,Bar,"北町2丁目37-8, 練馬区, 東京都, 179-0081"
UR賃貸住宅 エステート西台,沖縄料理 あじまー,35.764463,139.670175,Sake Bar,"上板橋2丁目19-7, 板橋区, 東京都, 174-0076"
UR賃貸住宅 エステート西台,隠れ家日本酒バル いつCoCo,35.768306,139.661335,Bar,"北町2丁目37-4, 練馬区, 東京都, 179-0081"
UR賃貸住宅 エステート西台,KFC (ケンタッキーフライドチキン),35.769078,139.661422,Fried Chicken Joint,"徳丸2丁目3-1 (東武練馬駅前 徳丸スクエア 2F), 板橋区, 東京都, 175-0083"
UR賃貸住宅 エステート西台,はるはる屋東武練馬店,35.769007,139.660884,Bar,"徳丸3丁目1-25, 板橋区, 東京都, 175-0083"
UR賃貸住宅 エステート西台,COME ON (いざかや COMEON 花門),35.765979,139.675072,Sake Bar,"上板橋3丁目6-7, 板橋区, 東京都, 174-0076"
UR賃貸住宅 エステート西台,呑み処吉,35.769053,139.660832,Bar,"徳丸3丁目1-25, 板橋区, 東京都, 175-0083"
UR賃貸住宅 エステート西台,南条,35.768433,139.660658,Bar,"北町2丁目36-3, 練馬区, 東京都, 179-0081"
UR賃貸住宅 エステート西台,スナック・ビレッジK,35.766709,139.661666,Bar,"北町2丁目19-9, 練馬区, 東京都, 179-0081"
UR賃貸住宅 エステート西台,北の家,35.766709,139.661666,Bar,"北町2丁目19-9, 練馬区, 東京都, 179-0081"
小平市役所,Bar SUN,35.723226,139.479698,Bar,"学園西町2丁目14-20 (永井マンション), 小平市, 東京都, 187-0045"
小平市役所,鳥貴族一橋学園店,35.721458,139.47979,Sake Bar,"学園西町 1丁目 26-41 (中村ビル 2F), 小平市, 東京都, 187-0045"
小平市役所,手打ち蕎麦と酒佳蕎庵,35.730497,139.479194,Soba Restaurant,"小川町2-1362, 小平市, 東京都, 187-0032"
小平市役所,Takakura Machi Coffee (高倉町珈琲),35.730563,139.473462,Café,"小川町2-1901, 小平市, 東京都, 187-0032"
小平市役所,から好し 小平小川町店,35.730627,139.474449,Japanese Restaurant,"小川町2-1863, 小平市, 東京都, 187-0032"
小平市役所,春夏秋冬,35.725511,139.480073,Sake Bar,"学園東町1丁目15-3, 小平市, 東京都, 187-0043"
小平市役所,にんにくや,35.726699,139.487897,Ramen Restaurant,"学園東町436-1, 小平市, 東京都, 187-0043"
小平市役所,串侍,35.7231,139.478694,Sake Bar,"学園西町2丁目15-32, 小平市, 東京都, 187-0045"
小平市役所,かぶら屋,35.723326,139.480114,Sake Bar,"学園東町1丁目4-2 (小菅ビル 1F), 小平市, 東京都, 187-0043"
小平市役所,ぼくの空間大番一橋学園本店,35.722855,139.479595,Sake Bar,"学園西町2丁目14-20 (永井マンション 102), 小平市, 東京都, 187-0045"
小平市役所,まいど 新小平店,35.730799,139.470362,Sake Bar,"小川町2丁目1961-3, 小平市, 東京都, 187-0032"
小平市役所,魚民一橋学園北口駅前店,35.722827,139.479717,Sake Bar,"学園西町2丁目13-33 (コスモ一橋学園ビル 2F), 小平市, 東京都, 187-0045"
小平市役所,ろばたさすらい人,35.730501,139.470086,Sake Bar,"小川町2丁目1971, 小平市, 東京都, 187-0032"
小平市役所,Syoya (庄や),35.730118,139.470174,Sake Bar,"小川町2丁目1213-2 (清水ビル 1F), 小平市, 東京都, 187-0032"
小平市役所,Fukusuke (手打うどん 福助),35.727387,139.474908,Udon Restaurant,"小川町2丁目1307-20, 小平市, 東京都, 187-0032"
小平市役所,や台ずし 一橋学園店,35.721689,139.479789,Sake Bar,"学園西町2丁目2-16 (アクトビル一橋学園 1F), 小平市, 東京都, 187-0045"
小平市役所,手打ち中国麺 なにや,35.72142,139.477712,Ramen Restaurant,"学園西町1丁目26-25, 小平市, 東京都, 187-0045"
小平市役所,ろこぼうずGAKUEN食堂BAR,35.723152,139.481551,Sake Bar,"学園東町1丁目4-34, 小平市, 東京都, 187-0043"
小平市役所,Yamada Udon (山田うどん食堂),35.73091,139.486674,Japanese Family Restaurant,"仲町183-1, 小平市, 東京都, 187-0042"
小平市役所,燻し家BAR一心,35.723256,139.483906,Bar,"学園東町2丁目6-37, 小平市, 東京都, 187-0043"
小平市役所,十七代目哲麺小平店,35.730541,139.487541,Ramen Restaurant,"仲町442-1, 小平市, 東京都, 187-0042"
小平市役所,Tully's Coffee,35.736798,139.476095,Coffee Shop,"小川東町4丁目1-1 (国立精神・神経医療研究センター 1F), 小平市, 東京都, 187-8551"
小平市役所,ドミノ・ピザ新小平店,35.73016,139.472511,Pizzeria,"小川町2丁目1273-1, 小平市, 東京都, 187-0032"
小平市役所,Yumean (夢庵),35.730278,139.479004,Japanese Family Restaurant,"小川町2丁目1359, 小平市, 東京都, 187-0032"
小平市役所,酔鯨,35.730466,139.481705,Sake Bar,"仲町632-7, 小平市, 東京都, 187-0042"
小平市役所,MOON CHILD,35.725552,139.479761,Bar,"学園東町1丁目14-7, 小平市, 東京都, 187-0043"
小平市役所,俺や,35.725506,139.479813,Bar,"学園東町1丁目14-8, 小平市, 東京都, 187-0043"
小平市役所,Royal Host (ロイヤルホスト),35.7306,139.488268,Japanese Family Restaurant,"仲町402, 小平市, 東京都, 187-0042"
小平市役所,ダイニングバー ピアーズ 新小平店,35.726814,139.473005,Bar,"小川町2丁目1267-7, 小平市, 東京都, 187-0032"
小平市役所,カサブランカ,35.723572,139.479213,Bar,"学園西町2丁目14-4, 小平市, 東京都, 187-0045"
小平市役所,中華料理香満園,35.723636,139.480199,Bar,"学園東町1丁目4-5, 小平市, 東京都, 187-0043"
小平市役所,酒処あい,35.723257,139.478867,Bar,"学園西町2丁目15-30, 小平市, 東京都, 187-0045"
小平市役所,炭焼処串侍,35.723043,139.478937,Bar,"学園西町2丁目15-32, 小平市, 東京都, 187-0045"
小平市役所,麹肴と,35.722789,139.477639,Bar,"学園西町2丁目13-20, 小平市, 東京都, 187-0045"
小平市役所,や台ずし 一橋学園駅前町,35.721644,139.479841,Sake Bar,"学園西町2丁目2-16, 小平市, 東京都, 187-0045"
小平市役所,Mampukuro (満福楼),35.730324,139.477272,Chinese Restaurant,"小川町2丁目1337 (第三レイクマンション 1F), 小平市, 東京都, 187-0032"
小平市役所,Avanti,35.720918,139.479704,Bar,"学園西町1丁目25-31, 小平市, 東京都, 187-0045"
小平市役所,きよ乃,35.723066,139.485274,Bar,"学園東町2丁目4-20, 小平市, 東京都, 187-0043"
小平市役所,ふくちゃん,35.720449,139.480156,Sake Bar,"学園西町1丁目20-10, 小平市, 東京都, 187-0045"
小平市役所,Ōme-Kaidō Station (ST03) (青梅街道駅),35.730972,139.476583,Rail Station,"小川町2丁目1846 (西武多摩湖線), 小平市, 東京都, 187-0032"
小平市役所,日高屋,35.722534,139.4797,Chinese Restaurant,"学園西町2丁目13-36, 小平市, 東京都, 187-0045"
小平市役所,Hitotsubashi-gakuen Station (ST02) (一橋学園駅),35.721941,139.480117,Rail Station,"学園西町2丁目1-1 (西武多摩湖線), 小平市, 東京都, 187-0045"
小平市役所,かしの木,35.726864,139.473213,Coffee Shop,"小川町2丁目1268-102, 小平, 東京都, 187-0032"
小平市役所,喜楽鮨,35.724942,139.480109,Sushi Restaurant,"学園東町1丁目8-4, 小平市, 東京都, 187-0043"
小平市役所,とりあん 小平店,35.72483,139.479884,Deli,"学園東町1丁目9-16, 小平市, 東京都, 187-0043"
小平市役所,焼鳥まっちゃん学園,35.724155,139.479955,Bar,"学園東町1丁目6-12, 小平市, 東京都, 187-0043"
小平市役所,日本亭小平学園東町店,35.723631,139.47994,Deli,"学園東町1丁目5-7, 小平市, 東京都, 187-0043"
小平市役所,CAZE CAFE なかまち,35.730849,139.484977,Café,"仲町145 なかまちテラス エリア: 小平 (なかまちテラス1F), 小平市, 東京都, 187-0042"
小平市役所,一品菜,35.730527,139.470675,Chinese Restaurant,"小川町2丁目1959-1 (ダル・エル・ベイダ 1F), 小平市, 東京都, 187-0032"
小平市役所,大黒楼,35.723184,139.475681,Chinese Restaurant,"学園西町2-16, 小平市, 東京都"
栗山公園(小金井市),酒美飯囲 ひろし,35.700838,139.523303,Sake Bar,"東町4丁目41-2, 小金井, 東京都, 184-0011"
栗山公園(小金井市),Torikizoku (鳥貴族 東小金井店),35.700568,139.524585,Sake Bar,"東町 4丁目 43-9 (2F), 小金井市, 東京都, 184-0011"
栗山公園(小金井市),Houka (宝華),35.701472,139.525224,Chinese Restaurant,"東町4丁目46-12, 小金井市, 東京都, 184-0011"
栗山公園(小金井市),Kujira Shokudo (くじら食堂),35.70165462334241,139.52486866560042,Ramen Restaurant,"梶野町5丁目1-1 (nonowa東小金井1021), 小金井市, 東京都, 184-0002"
栗山公園(小金井市),Dailies Cafe Higako (デイリーズカフェ ヒガコ),35.701594,139.521639,Café,"緑町1丁目1-28 (ののみちヒガコ西 モビリティステーション東小金井 W02), 小金井市, 東京都, 184-0003"
栗山公園(小金井市),にんにくや,35.697653,139.522548,Ramen Restaurant,"東町4丁目34-5, 小金井市, 東京都, 184-0011"
栗山公園(小金井市),燻薫 〜kun kun〜,35.698976,139.524208,Bar,"東町4丁目37-23 (星川ビルD号), 小金井市, 東京都, 184-0011"
栗山公園(小金井市),Komeda's Coffee (コメダ珈琲店),35.702127,139.522175,Café,"梶野町5丁目2-19, 小金井市, 東京都, 184-0002"
栗山公園(小金井市),メルローズ2,35.699866,139.524067,Bar,"東町4丁目38-26 (トーケンプラザ 2F), 小金井市, 東京都, 184-0011"
栗山公園(小金井市),小金井マスカット,35.699837,139.524188,Pub,"東町4丁目38-26, 小金井, 東京都, 184-0011"
栗山公園(小金井市),小金井ダーツ,35.699821,139.524119,Cocktail Bar,"東町4丁目38-26 (トーケンプラザ207-208), 小金井市, 東京都, 184-0011"
栗山公園(小金井市),焼き処串まる,35.699632,139.524778,Sake Bar,"東町4丁目31-18, 小金井市, 東京都, 184-0011"
栗山公園(小金井市),めん屋平右衛門,35.700556,139.524776,Ramen Restaurant,"東町4丁目43-12, 小金井市, 東京都, 184-0011"
栗山公園(小金井市),カラオケボックスエムズ,35.699628,139.524518,Karaoke Box,"東町4丁目38-24, 小金井市, 東京都, 184-0011"
栗山公園(小金井市),ひがこDINING彩り,35.700616,139.523823,Sake Bar,"東町4丁目38-17 (水沢ビル 1F), 小金井市, 東京都, 184-0011"
栗山公園(小金井市),Coffeeya (珈琲や 東小金井工房),35.701635,139.526627,Café,"梶野町5丁目10-58 (ののみちヒガコ東 コミュニティステーション東小金井 E04), 小金井市, 東京都, 184-0002"
栗山公園(小金井市),Sai no Tsuno (サイのツノ / サイのツノ2.0),35.699376,139.524189,Japanese Curry Restaurant,"東町4丁目37-19, 小金井市, 東京都, 184-0011"
栗山公園(小金井市),へそまがり,35.700547,139.524256,Sake Bar,"東町4丁目38-21, 小金井市, 東京都, 184-0011"
栗山公園(小金井市),太平楽,35.70028,139.524828,Sake Bar,"東町4-43-13, 小金井市, 東京都, 184-0011"
栗山公園(小金井市),波波,35.700494,139.524759,Sake Bar,"東町4丁目43-12 (カーサ6 1F), 小金井市, 東京都, 184-0011"
栗山公園(小金井市),ビストロ ヴェール ド メール,35.700725,139.524758,Wine Bar,"東町4丁目43-10, 小金井市, 東京都, 184-0011"
栗山公園(小金井市),だんでいらいおん,35.704881,139.5221,Yoshoku Restaurant,"梶野町5丁目7-20 (2F), 小金井市, 東京都, 184-0002"
栗山公園(小金井市),串もん 末吉や 東小金井店,35.701194,139.524307,Sake Bar,"東町4丁目42-20 (SKビル２F), 小金井市, 東京都, 184-0011"
栗山公園(小金井市),スタ城,35.701701,139.524254,Sake Bar,"梶野町5丁目2-37, 小金井市, 東京都, 184-0002"
栗山公園(小金井市),Hanaya Yohei (華屋与兵衛 東小金井店),35.704805,139.525633,Japanese Family Restaurant,"梶野町5丁目9-18, 小金井市, 東京都, 184-0002"
栗山公園(小金井市),旬彩庭華美,35.701472,139.525224,Sake Bar,"東町4丁目46-12 (コグレビル 1F), 小金井市, 東京都, 184-0011"
栗山公園(小金井市),ジャイアントパンダ,35.701602,139.526488,Beer Bar,"梶野町5丁目10-58, 小金井市, 東京都, 184-0002"
栗山公園(小金井市),らーめんがんま,35.703265,139.522103,Ramen Restaurant,"梶野町5丁目6-12, 小金井市, 東京都, 184-0002"
栗山公園(小金井市),König (ケーニッヒ 本店),35.70136,139.5127,Restaurant,"緑町5丁目17-22, 小金井市, 東京都, 184-0003"
栗山公園(小金井市),Gyoza no Manshu (ぎょうざの満洲 東小金井南口店),35.700213,139.524551,Chinese Restaurant,"東町4丁目43-4 (栄ビル), 小金井市, 東京都, 184-0011"
栗山公園(小金井市),Shining Stage Chi é mi,35.701346,139.511942,Bar,"緑町5丁目4-24 (グリーンフラッツ小金井), 小金井市, 東京都, 184-0003"
栗山公園(小金井市),スターバックス,35.701594,139.524289,Coffee Shop,"梶野町5丁目1-1 (nonowa東小金井), 小金井市, 東京都, 184-0002"
栗山公園(小金井市),焼酎Bar 蘭引,35.700568,139.524585,Bar,"東町4-43-9 (宮沢ビル 103), 小金井市, 東京都, 184-0011"
栗山公園(小金井市),シャトレーゼ 小金井東町店,35.694176,139.51973,Pastry Shop,"東町5丁目22-14, 小金井市, 東京都, 184-0011"
栗山公園(小金井市),Coral Ocean (コーラルオーシャン),35.699961,139.524223,Pub,"東町4丁目38-24, 小金井市, 東京都, 184-0011"
栗山公園(小金井市),Tre Falco 東小金井店,35.70004,139.524309,Bar,"東町4丁目38-24 (高橋ビル 2F), 小金井市, 東京都, 184-0011"
栗山公園(小金井市),パブエレガント,35.699632,139.524778,Bar,"東町4丁目31-18, 小金井市, 東京都, 184-0011"
栗山公園(小金井市),岳志,35.699587,139.52483,Sake Bar,"東町4丁目31-18, 武蔵野市, 東京都, 184-0011"
栗山公園(小金井市),Paradise Kitchen WAI,35.700616,139.523823,Sake Bar,"東町4丁目38-17, 小金井市, 東京都, 184-0011"
栗山公園(小金井市),Star 魚'S Man,35.700616,139.523823,Sake Bar,"東町4-38-17 (水沢ビル), 小金井市, 東京都, 184-0011"
栗山公園(小金井市),炭火焼 わら家,35.696875,139.525563,Bar,"東町4丁目38-26, 小金井市, 東京都, 184-0011"
栗山公園(小金井市),nuit,35.700547,139.524256,Bar,"東町4丁目38-21, 小金井市, 東京都, 184-0011"
栗山公園(小金井市),海風,35.70028,139.524828,Sake Bar,"東町4丁目43-13, 小金井市, 東京都, 184-0011"
栗山公園(小金井市),Secret Door,35.70084,139.524273,Bar,"東町4丁目42-4 (ダイワパレスNo.7 2F), 小金井市, 東京都, 184-0011"
栗山公園(小金井市),ワイン食堂ヒデ,35.700568,139.524585,Bar,"東町4丁目43-9 (宮沢ビル1-c), 小金井市, 東京都, 184-0011"
栗山公園(小金井市),KARAOKE Dining M's (KARAOKE Dining エムズ),35.700449,139.527461,Karaoke Bar,"東町4丁目38-24 (高橋ビル 2F), 小金井市, 東京都, 184-0011"
栗山公園(小金井市),Sukiya (すき家),35.694685,139.518363,Restaurant,"中町2丁目8-2, 小金井市, 東京都, 184-0012"
栗山公園(小金井市),東小金井 ひかり屋,35.704712,139.522117,Sake Bar,"梶野町5丁目7-19, 小金井市, 東京都, 184-0002"
栗山公園(小金井市),Uonchu (魚人),35.700382,139.524534,Sushi Restaurant,"東町4丁目43-6, 小金井市, 東京都, 184-0011"
栗山公園(小金井市),かず家,35.700604,139.524014,Bar,"東町4丁目38-17 (水沢ビル), 小金井市, 東京都, 184-0011"
NeoStyle立石,Ebisuya Shokudo (ゑびすや食堂),35.737833,139.848071,Sake Bar,"立石1丁目15-11, 葛飾区, 東京都, 124-0012"
NeoStyle立石,丸忠かまぼこ店,35.738063,139.849045,Sake Bar,"立石1丁目19-2 (立石仲見世商店街), 葛飾区, 東京都, 124-0012"
NeoStyle立石,Sakaezushi (栄寿司),35.738059,139.848784,Sushi Restaurant,"立石1丁目18-5 (立石仲見世商店街), 葛飾区, 東京都, 124-0012"
NeoStyle立石,Mitsuwa (ミツワ),35.737997,139.848767,Sake Bar,"立石1丁目18-5, 葛飾区, 東京都, 124-0012"
NeoStyle立石,麺・粥 けんけん,35.737879,139.847044,Ramen Restaurant,"立石1丁目14-4, 葛飾区, 東京都, 124-0012"
NeoStyle立石,鳥貴族青砥店,35.745195,139.855483,Sake Bar,"青戸 3丁目 39-15 (2F), 葛飾区, 東京都, 125-0062"
NeoStyle立石,たこ焼大ちゃん,35.737794,139.849619,Takoyaki Place,"立石1丁目21-6, 葛飾区, 東京都, 124-0012"
NeoStyle立石,居酒屋 みちくさ,35.738924,139.84682,Sake Bar,"立石4丁目3-11, 葛飾区, 東京都, 124-0012"
NeoStyle立石,abbina,35.739741,139.848806,Beer Bar,"立石4丁目27-9 (水谷ビル 2F), 葛飾区, 東京都, 124-0012"
NeoStyle立石,ふくすけ,35.739741,139.848806,Sake Bar,"立石4丁目27-8, 葛飾区, 東京都, 124-0012"
NeoStyle立石,Yotsugi Seimenjo (四ツ木製麺所),35.733677,139.846635,Udon Restaurant,"東立石2丁目11-7, 葛飾区, 東京都, 124-0013"
NeoStyle立石,COCOLIE (ココリエ),35.74246,139.849055,Bar,"立石6丁目1-6 (幸輝ビル 1F), 葛飾区, 東京都, 124-0012"
NeoStyle立石,たみちゃん,35.737997,139.848767,Sake Bar,"立石1丁目18-8, 葛飾区, 東京都, 124-0012"
NeoStyle立石,人生のスパイス,35.738736,139.849691,Sake Bar,"立石7丁目1-13, 葛飾区, 東京都, 124-0012"
NeoStyle立石,下町酒場白虎隊,35.737699,139.849462,Sake Bar,"立石1丁目21-3, 葛飾区, 東京都, 124-0012"
NeoStyle立石,セルフヤキトリSOCOLIE,35.737464,139.849201,Sake Bar,"葛飾区, 東京都, 124-0012"
NeoStyle立石,倉井ストアー,35.73828,139.840921,Teishoku Restaurant,"立石2丁目18-4, 葛飾区, 東京都, 124-0012"
NeoStyle立石,や台ずし 京成立石町,35.737625,139.849636,Sake Bar,"立石1丁目21-3, 葛飾区, 東京都, 124-0012"
NeoStyle立石,Sushi Choushimaru (すし銚子丸),35.74364,139.845491,Sushi Restaurant,"立石5丁目16-17, 葛飾区, 東京都, 124-0012"
NeoStyle立石,天下泰平酒場,35.73592,139.847075,Sake Bar,"東立石3丁目26-11, 葛飾区, 東京都, 124-0013"
NeoStyle立石,Boulangerie Auvergne,35.745532,139.847131,Bakery,"立石6丁目5-7, 葛飾区, 東京都, 124-0012"
NeoStyle立石,Bar & Restaurant Liens,35.738284,139.847289,Cocktail Bar,"立石4丁目22-3, 葛飾区, 東京都, 124-0012"
NeoStyle立石,名門餃子酒場,35.744052,139.85334,Sake Bar,"立石6丁目31-10 (トーカンマンション青砥 1F), 葛飾区, 東京都, 124-0012"
NeoStyle立石,MOS Burger (モスバーガー),35.737689,139.851863,Burger Joint,"立石8丁目6-18, 葛飾区, 東京都, 124-0012"
NeoStyle立石,玄庵,35.736446,139.846119,Soba Restaurant,"東立石3丁目24-8 (かいづかビル2F), 葛飾区, 東京都, 124-0013"
NeoStyle立石,和食酒処三㐂,35.748128,139.845397,Sake Bar,"白鳥2丁目15-13, 葛飾区, 東京都, 125-0063"
NeoStyle立石,もつ焼き 小江戸,35.745315,139.855257,Sake Bar,"青戸3丁目39-3 (優和ビル 2F), 葛飾区, 東京都, 125-0062"
NeoStyle立石,Katsushika Symphony Hills (かつしかシンフォニーヒルズ),35.742462,139.85224,Concert Hall,"立石6丁目33-1, 葛飾区, 東京都, 124-0012"
NeoStyle立石,ダーツカフェ・イワオ,35.744426,139.855655,Arts and Entertainment,"青戸1丁目9-23 (ジュネパレス葛飾第1ビル B1F), 葛飾区, 東京都, 125-0062"
NeoStyle立石,こまどり,35.745543,139.854996,Sake Bar,"青戸3丁目39-9, 葛飾区, 東京都, 125-0062"
NeoStyle立石,たべのみ屋うま和,35.735447,139.838236,Sake Bar,"四つ木1丁目45-4, 葛飾区, 東京都, 124-0011"
NeoStyle立石,いちや,35.744815,139.85583,Sake Bar,"青戸1丁目9-23, 葛飾区, 東京都, 125-0062"
NeoStyle立石,SHIRA鶏,35.747812,139.84089,Sake Bar,"お花茶屋1丁目20-10, 葛飾区, 東京都, 124-0003"
NeoStyle立石,灯,35.745629,139.855606,Sake Bar,"青戸3丁目37-6 (サザンビル 1F), 葛飾区, 東京都, 125-0062"
NeoStyle立石,立花,35.745798,139.855589,Sake Bar,"青戸3丁目37-18, 葛飾区, 東京都, 125-0062"
NeoStyle立石,居酒家 もんち,35.748044,139.84089,Sake Bar,"お花茶屋1丁目20-8 (コーポM 101), 葛飾区, 東京都, 124-0003"
NeoStyle立石,たこ焼き 長尾,35.746072,139.854301,Takoyaki Place,"青戸3丁目31-4 (田嶋ビル 1F), 葛飾区, 東京都, 125-0062"
NeoStyle立石,Keisei-Tateishi Station (KS49) (京成立石駅),35.7382817,139.8486384,Rail Station,"立石4丁目24-1, 葛飾区, 東京都, 124-0012"
NeoStyle立石,毘利軒,35.738359,139.849522,Bar,"立石1丁目22-6, 葛飾区, 東京都, 124-0012"
NeoStyle立石,三千里立石店,35.739723,139.839445,BBQ Joint,"立石2丁目13-6, 葛飾区, 東京都, 124-0012"
NeoStyle立石,Kappa Sushi (かっぱ寿司),35.742655,139.842549,Sushi Restaurant,"立石5丁目2-3, 葛飾区, 東京都, 124-0012"
NeoStyle立石,Saizeriya (サイゼリヤ),35.747094,139.840296,Italian Restaurant,"宝町2丁目34-16 (お花茶屋駅前 M's ETERNA 2F), 葛飾区, 東京都, 124-0005"
NeoStyle立石,ほっともっと,35.736732,139.847563,Restaurant,"東立石3丁目37-5, 葛飾区, 東京都, 124-0013"
NeoStyle立石,Gyomu Super (業務スーパー 河内屋 立石店),35.742609,139.842601,Supermarket,"立石5丁目6-3, 葛飾区, 東京都, 124-0012"
NeoStyle立石,松屋,35.745538,139.85571,Restaurant,"青戸3丁目37-19, 葛飾区, 東京都, 125-0062"
NeoStyle立石,もつ焼大門,35.739066,139.845951,Sake Bar,"立石3丁目29-3, 葛飾区, 東京都, 124-0012"
NeoStyle立石,酒飯肴 まる心,35.73958,139.84837,Bar,"立石4丁目28-20, 葛飾区, 東京都, 124-0012"
NeoStyle立石,喰いしん坊大吉,35.738858,139.847516,Sake Bar,"葛飾区, 東京都, 124-0012"
NeoStyle立石,三平,35.7392253,139.8483647,Sake Bar,"立石4丁目27-16, 葛飾区, 東京都, 124-0012"
NeoStyle立石,豚燻,35.739741,139.848806,Bar,"立石4丁目27-9, 葛飾区, 東京都, 124-0012"
たづくり緑地,調布バルカベソン,35.653,139.546131,Wine Bar,"布田1丁目25-5 (増川ビル 1F), 調布市, 東京都, 182-0024"
たづくり緑地,JACKSON HOLE,35.65483,139.545089,Beer Bar,"布田1丁目3-1 (イエローストーンビル 1F), 調布市, 東京都, 182-0024"
たづくり緑地,YEBISU BAR 調布サウスゲートビル店,35.651809,139.543087,Beer Bar,"小島町2丁目48-26 (トリエ京王調布 サウスゲート1階), 調布市, 東京都, 182-0026"
たづくり緑地,さかなや道場調布東口店,35.652047,139.545285,Sake Bar,"布田1丁目44-3, 調布市, 東京都, 182-0024"
たづくり緑地,宮崎県日南市塚田農場調布北口店,35.65219,139.544679,Sake Bar,"布田1丁目41-2 (原政ビル 3F), 調布市, 東京都, 182-0024"
たづくり緑地,Torikizoku (鳥貴族 調布南口店),35.650864,139.542759,Sake Bar,"小島町 2丁目 46-1 (KMビル B1F), 調布市, 東京都, 182-0026"
たづくり緑地,遊民,35.651866,139.545493,Bar,"布田1丁目45-3 (第十通南ビル B1F), 調布市, 東京都, 182-0024"
たづくり緑地,二代目うおたま よだれ屋本家調布,35.650924,139.548074,Sake Bar,"布田2丁目37-5, 調布市, 東京都, 182-0024"
たづくり緑地,酒と魚青のこと,35.654007,139.546476,Sake Bar,"布田1丁目14-12, 調布市, 東京都, 182-0024"
たづくり緑地,Torikizoku (鳥貴族調布東口店),35.652006,139.545596,Sake Bar,"布田 1丁目 47-1 (アルビル 4F), 調布市, 東京都, 182-0024"
たづくり緑地,Sarutahiko Coffee (猿田彦珈琲 調布焙煎ホール),35.652508,139.541666,Café,"小島町2丁目61-1 (トリエ京王調布 C館 1F), 調布市, 東京都, 182-0026"
たづくり緑地,Shokujin Gyozao (食神 餃子王),35.655779,139.542058,Chinese Restaurant,"小島町1丁目5-1 (調布スカイマンション 1F), 調布市, 東京都, 182-0026"
たづくり緑地,四十八漁場調布駅前店,35.651538,139.544368,Sake Bar,"布田4丁目2-1 (調布スクエアビル1F), 調布, 東京都, 182-0024"
たづくり緑地,もつやき処 い志井本店,35.653526,139.544468,Bar,"布田1丁目36-10, 調布市, 東京都, 182-0024"
たづくり緑地,ちび九炉調布駅北口店,35.652141,139.544471,Sake Bar,"布田4丁目41-1 (菊屋ビル B1F), 調布市, 東京都, 182-0024"
たづくり緑地,焼肉食堂調布食肉センター,35.652166,139.535175,BBQ Joint,"下石原2丁目46-1, 調布市, 東京都, 182-0034"
たづくり緑地,もりもり寿し,35.651556,139.545407,Sushi Restaurant,"布田4丁目4-22 (トリエ京王調布A館 5F), 調布市, 東京都, 182-0024"
たづくり緑地,牛たん処 い志井,35.652237,139.545596,BBQ Joint,"布田2丁目1-3, 調布市, 東京都, 182-0024"
たづくり緑地,yakumo (や久も),35.65312,139.545906,Soba Restaurant,"布田1丁目26-12, 調布市, 東京都, 182-0024"
たづくり緑地,HAVE FUN,35.653565,139.542218,Entertainment Service,"小島町1丁目34-1, 調布市, 東京都, 182-0026"
たづくり緑地,千年ラーメン,35.6492,139.540875,Ramen Restaurant,"小島町3丁目68-1, 調布市, 東京都, 182-0026"
たづくり緑地,ビール屋 コイズミ,35.652173,139.537373,Beer Bar,"下石原2丁目59-4, 調布市, 東京都, 182-0034"
たづくり緑地,Nick Stock Trie Keio Chofu,35.652197,139.543259,Café,"小島町2丁目48-6 (トリエ京王調布B館 1F), 調布市, 東京都, 182-0026"
たづくり緑地,たけちゃんにぼしらーめん,35.652051,139.545544,Ramen Restaurant,"布田1丁目47-1 (辰巳ビル 1F), 調布市, 東京都, 182-0024"
たづくり緑地,Kushikatsu Tanaka (串カツ田中),35.653379,139.542166,Bar,"小島町1丁目34-3 (宮田店舗), 調布市, 東京都, 182-0026"
たづくり緑地,カラオケC STAR シースター,35.652264,139.544505,Karaoke Box,"布田1丁目41-1 (菊谷ビル 2F), 調布市, 東京都, 182-0024"
たづくり緑地,Ikinari Steak (いきなり!ステーキ),35.653507,139.54246,Burger Joint,"小島町1丁目34-22, 調布市, 東京都, 182-0026"
たづくり緑地,日々是宴,35.65384,139.544814,Sake Bar,"布田1丁目34-1, 調布市, 東京都, 182-0024"
たづくり緑地,ぎょぎょぎょの魚太郎,35.65384,139.544814,Sake Bar,"布田1丁目34-1 (永祥ビル 1F), 調布市, 東京都, 182-0024"
たづくり緑地,そらまめらぁめん本舗,35.652245,139.545146,Ramen Restaurant,"布田1丁目43-3 (オリエントマンション 106), 調布市, 東京都, 182-0024"
たづくり緑地,輪郭の断片,35.65727,139.5437,Public Art,"調布ヶ丘1丁目5-1 (電気通信大学), 調布市, 東京都, 182-8585"
たづくり緑地,Curry Shop C&C (カレーショップ C&C),35.651646,139.544333,Japanese Curry Restaurant,"布田4丁目2-1 (調布スクエアビル 1F), 調布市, 東京都, 182-0024"
たづくり緑地,Button (ぶっ豚),35.652484,139.545665,Ramen Restaurant,"布田1丁目45-6 (ライオンズマンション 1F), 調布市, 東京都, 182-0024"
たづくり緑地,あずきや 安堂,35.653695,139.544451,Bakery,"布田1丁目36-10, 調布市, 東京都, 182-0024"
たづくり緑地,Koisushi (鯉寿司 調布店),35.658086,139.540115,Sushi Restaurant,"富士見町2丁目9-17, 調布市, 東京都, 182-0033"
たづくり緑地,さんかん,35.65367,139.547481,Speakeasy,"布田2丁目1-3 (永祥ビル3 2F), 調布市, 東京都, 182-0024"
たづくり緑地,Sushi Choushimaru (すし銚子丸),35.647273,139.54609,Japanese Family Restaurant,"布田6丁目1-1, 調布市, 東京都, 182-0024"
たづくり緑地,つぼき,35.645258,139.537196,Sake Bar,"小島町3丁目34-16, 調布市, 東京都, 182-0026"
たづくり緑地,MOS Burger (モスバーガー),35.648914,139.543057,Burger Joint,"小島町2丁目56-2 (ライオンズプラザ調布シティ 1F), 調布市, 東京都, 182-0026"
たづくり緑地,鶏冠,35.650518,139.549512,Sake Bar,"布田2丁目46-14, 調布市, 東京都, 182-0024"
たづくり緑地,Sutadonya (伝説のすた丼屋),35.653588,139.544486,Donburi Restaurant,"布田1丁目36-10, 調布市, 東京都, 182-0024"
たづくり緑地,三三九富士見町店,35.658243,139.537639,BBQ Joint,"富士見町2丁目1-7, 調布市, 東京都, 182-0033"
たづくり緑地,NEW YORKER'S Cafe,35.65219,139.544679,Café,"布田1丁目41-2 (原政ビル 1F), 調布市, 東京都, 182-0024"
たづくり緑地,新鮮ホルモン豚風,35.652128,139.54731,BBQ Joint,"布田2丁目 35-2, 調布市, 東京都, 182-0024"
たづくり緑地,一揆,35.65033,139.551139,Sake Bar,"国領町1丁目3-25 (F-SPACE 2F), 調布市, 東京都, 182-0022"
たづくり緑地,もつ焼き処竹次,35.649361,139.551193,Sake Bar,"国領町5丁目70-4, 調布市, 東京都, 182-0022"
たづくり緑地,あみやき亭調布店,35.651636,139.536578,BBQ Joint,"下石原2丁目61-1, 調布市, 東京都, 182-0034"
たづくり緑地,ILL FROGS,35.652128,139.54731,Burger Joint,"布田2丁目35-2 (hanajuuビル 2F), 調布市, 東京都, 182-0024"
たづくり緑地,Shot Bar 桂,35.651805,139.546445,Bar,"布田1丁目50-1 (マートルコート調布第3 2F), 調布市, 東京都, 182-0024"
たづくり緑地,角川書店角川大映撮影所,35.644741,139.539378,Film Studio,"多摩川6丁目1-1, 調布市, 東京都, 182-0025"
SANパーク 下北沢4,熊八,35.661307,139.672563,Sake Bar,"北沢1丁目32-5, 世田谷区, 東京都, 155-0031"
SANパーク 下北沢4,Bar Gari Gari (バー ガリガリ),35.660693,139.67265,Bar,"代沢2丁目45-9 (飛田ビルB1F), 世田谷区, 東京都, 155-0032"
SANパーク 下北沢4,Tepito (テピート),35.663993,139.670013,Bar,"北沢2丁目34-8 (KMビル 3F), 世田谷区, 東京都, 155-0031"
SANパーク 下北沢4,KANTERA (焼肉 韓てら),35.654267,139.672598,BBQ Joint,"代沢3丁目12-26, 世田谷区, 東京都, 155-0032"
SANパーク 下北沢4,SIDEWALK COFFEE ROASTERS,35.664217,139.671436,Coffee Shop,"北沢3丁目9-19 (MUSTARD HOTEL SHIMOKITAZAWA 1F), 世田谷区, 東京都, 155-0031"
SANパーク 下北沢4,おむすびシアターbar シモキタ,35.664698,139.665938,Bar,"北沢2丁目6-6 (澤田ビル), 世田谷区, 東京都, 155-0031"
SANパーク 下北沢4,OGAWA COFFEE LABORATORY 下北沢,35.663486,139.670066,Coffee Shop,"北沢3丁目19-20 (reload 1-1), 世田谷区, 東京都, 155-0031"
SANパーク 下北沢4,BAR CCO,35.65895,139.66776,Bar,"代沢5丁目32-10 (ラパシオン下北沢 B1F), 世田谷区, 東京都, 155-0032"
SANパーク 下北沢4,Tonkatsu Muneta (とんかつ棟田),35.659265,139.672962,Japanese Curry Restaurant,"代沢2丁目37-15 (三益ビル1F), 世田谷区, 東京都, 155-0032"
SANパーク 下北沢4,Bar La Fumee,35.659661,139.672685,Bar,"代沢2丁目36-23, 世田谷区, 東京都, 155-0032"
SANパーク 下北沢4,Bear Pond Espresso,35.663927,139.667794,Coffee Shop,"北沢2丁目36-12, 世田谷区, 東京都, 155-0031"
SANパーク 下北沢4,酒処五郎,35.660309,139.672737,Sake Bar,"代沢2丁目44-15 (暫ビル 2F), 世田谷区, 東京都, 155-0032"
SANパーク 下北沢4,代沢亭,35.653915,139.666998,Sake Bar,"代沢4丁目44-1, 世田谷区, 東京都, 155-0032"
新柴又高架下第2自転車駐車場,がってん,35.750627,139.879185,Sake Bar,"柴又5丁目1-13, 葛飾区, 東京都, 125-0052"
新柴又高架下第2自転車駐車場,Moromoro (もろもろ(庶)),35.750656,139.879063,Sake Bar,"柴又5丁目1-6, 葛飾区, 東京都, 125-0052"
新柴又高架下第2自転車駐車場,Toraya (とらや),35.757672,139.876697,Japanese Restaurant,"柴又7丁目7-5, 葛飾区, 東京都, 125-0052"
新柴又高架下第2自転車駐車場,Khushi (クーシ),35.7562407,139.8758995,Indian Restaurant,"柴又4丁目11-6 (ASAHIビル 1F), 葛飾区, 東京都, 125-0052"
新柴又高架下第2自転車駐車場,Takagiya-rouho (高木屋老舗),35.757655,139.876627,Coffee Shop,"柴又7丁目7-4, 葛飾区, 東京都, 125-0052"
新柴又高架下第2自転車駐車場,Ishii (い志ゐ),35.757887,139.876628,Bakery,"柴又7丁目6-20, 葛飾区, 東京都, 125-0052"
新柴又高架下第2自転車駐車場,葛飾柴又寅さん記念館 (寅さん記念館),35.757189,139.880526,Science Museum,"柴又6丁目22-19, 葛飾区, 東京都, 125-0052"
新柴又高架下第2自転車駐車場,りゅうき,35.756511,139.875458,Sake Bar,"柴又4-8-11, 葛飾区, 東京都, 125-0052"
新柴又高架下第2自転車駐車場,映治,35.743212,139.883778,Sake Bar,"北小岩6丁目10-12, 江戸川区, 東京都, 133-0051"
新柴又高架下第2自転車駐車場,L' Atelier Du Sucre (ラトリエ・ドゥ・シュクル 小岩本店),35.744815,139.883712,Pastry Shop,"北小岩6丁目5-5, 江戸川区, 東京都, 133-0051"
新柴又高架下第2自転車駐車場,川千家,35.758279,139.877064,Tempura Restaurant,"柴又7丁目6-16, 葛飾区, 東京都, 125-0052"
新柴又高架下第2自転車駐車場,Jonathan's (ジョナサン),35.752628,139.877867,Japanese Family Restaurant,"柴又4丁目31-8, 葛飾区, 東京都, 125-0052"
新柴又高架下第2自転車駐車場,亀家本舗,35.758006,139.877377,"Cafe, Coffee, and Tea House","柴又7丁目7-9, 葛飾区, 東京都, 125-0052"
新柴又高架下第2自転車駐車場,船橋屋柴又店,35.75773,139.876453,Bakery,"柴又7丁目6-1, 葛飾区, 東京都, 125-0052"
新柴又高架下第2自転車駐車場,日曜庵,35.759121,139.878668,Soba Restaurant,"柴又7丁目13-2, 葛飾区, 東京都, 125-0052"
新柴又高架下第2自転車駐車場,Yoshinoya (吉野家),35.757952,139.876906,Fast Food Restaurant,"柴又7丁目6-18, 葛飾区, 東京都, 125-0052"
新柴又高架下第2自転車駐車場,Sukiya (すき家),35.752252,139.878475,Restaurant,"柴又5丁目9-1, 葛飾区, 東京都, 125-0052"
新柴又高架下第2自転車駐車場,大和家,35.757672,139.876697,Tempura Restaurant,"柴又7丁目7-4, 葛飾区, 東京都, 125-0052"
新柴又高架下第2自転車駐車場,みの太家,35.749486,139.879251,Bar,"鎌倉3丁目28-23, 葛飾区, 東京都, 125-0053"
新柴又高架下第2自転車駐車場,Shin-Shibamata Station (HS01) (新柴又駅),35.751028,139.879168,Rail Station,"柴又5丁目7-1, 葛飾区, 東京都, 125-0052"
新柴又高架下第2自転車駐車場,Tully's Coffee 柴又駅前店,35.756945,139.875581,Café,"柴又4丁目8-16, 葛飾区, 東京都, 125-0052"
新柴又高架下第2自転車駐車場,KHUSHI 柴又,35.756164,139.875944,Bar,"葛飾区, 東京都"
新柴又高架下第2自転車駐車場,養老乃瀧柴又店,35.756982,139.875981,Bar,"柴又4丁目9-6, 葛飾区, 東京都, 125-0052"
新柴又高架下第2自転車駐車場,柴又駅前酒場・春,35.756697,139.87551,Bar,"柴又4丁目8-14, 葛飾区, 東京都, 125-0052"
新柴又高架下第2自転車駐車場,若樽,35.757883,139.876366,Sake Bar,"柴又7丁目6-3, 葛飾区, 東京都, 125-0052"
新柴又高架下第2自転車駐車場,鳥貴族京成小岩店 (鳥貴族),35.743265,139.884248,Yakitori Restaurant,"北小岩 6丁目 18-1 (石井ガーデンビル 2F), 江戸川区, 東京都, 133-0051"
新柴又高架下第2自転車駐車場,ひさご,35.749237,139.87086,Bar,"高砂3丁目20-10, 葛飾区, 東京都, 125-0054"
新柴又高架下第2自転車駐車場,亜羅夢,35.743171,139.883116,Bar,"北小岩6丁目10-1, 江戸川区, 東京都, 133-0051"
新柴又高架下第2自転車駐車場,山田洋次ミュージアム,35.757234,139.880473,Landmarks and Outdoors,"柴又6丁目22-19 (葛飾区観光文化センターB棟2階), 葛飾区, 東京都, 125-0052"
新柴又高架下第2自転車駐車場,葡萄屋,35.755795,139.877075,Bar,"柴又6丁目7-5, 葛飾区, 東京都, 125-0052"
新柴又高架下第2自転車駐車場,杉戸煎餅,35.745431,139.883627,Wagashi Place,"鎌倉4丁目32-13, 葛飾区, 東京都, 125-0053"
新柴又高架下第2自転車駐車場,中華料理福園,35.75773,139.876453,Chinese Restaurant,"柴又7丁目6-1, 葛飾区, 東京都, 125-0052"
新柴又高架下第2自転車駐車場,やぶ忠帝釈天参道店,35.75808,139.877203,Japanese Restaurant,"柴又7丁目7-8, 葛飾区, 東京都, 125-0052"
新柴又高架下第2自転車駐車場,Yebisuya (ゑびす家),35.757709,139.876122,Unagi Restaurant,"柴又7丁目3-7, 葛飾区, 東京都, 125-0052"
新柴又高架下第2自転車駐車場,柴又宮川,35.758671,139.8775,Unagi Restaurant,"柴又7丁目5-24, 葛飾区, 東京都, 125-0052"
新柴又高架下第2自転車駐車場,セピア,35.75792,139.875792,Café,"柴又7丁目4-11, 葛飾区, 東京都, 125-0052"
新柴又高架下第2自転車駐車場,矢切の渡し,35.7588,139.886119,Landmarks and Outdoors,"下矢切1257 (江戸川), 松戸市, 千葉県, 271-0096"
新柴又高架下第2自転車駐車場,マルゴハン,35.745687,139.874924,Deli,"鎌倉2丁目6-17, 葛飾区, 東京都, 125-0053"
新柴又高架下第2自転車駐車場,マナカマナ 小岩本店,35.74351,139.883082,North Indian Restaurant,"北小岩6丁目9-3, 江戸川区, 東京都, 133-0051"
新柴又高架下第2自転車駐車場,鳥せい,35.743171,139.883116,Bar,"北小岩6丁目10-1 (エスカイア北小岩第二 1F), 江戸川区, 東京都, 133-0051"
新柴又高架下第2自転車駐車場,イタリア料理たなか2,35.744597,139.886706,Italian Restaurant,"北小岩6--15-8, 江戸川区, 東京都, 133-0051"
新柴又高架下第2自転車駐車場,柴又丸仁,35.75792713865629,139.87692654132843,"Cafe, Coffee, and Tea House","柴又7丁目6-18, 葛飾区, 東京都, 125-0052"
新柴又高架下第2自転車駐車場,Bar Upstairs,35.743171,139.883116,N/A,"北小岩6丁目10-1, 江戸川区, 東京都, 133-0051"
セブンイレブン　墨田菊川1丁目店,Mitakaya Bar (みたかや酒場),35.686956,139.803632,Sake Bar,"森下4丁目20-3, 江東区, 東京都, 135-0004"
セブンイレブン　墨田菊川1丁目店,Bar Helissio,35.692648,139.797646,Cocktail Bar,"両国4丁目2-8 (ヤマシタビル 1F), 墨田区, 東京都, 130-0026"
セブンイレブン　墨田菊川1丁目店,Beer Club Popeye (麦酒倶楽部ポパイ),35.695055,139.79268,Beer Bar,"両国2丁目18-7 (ハイツ両国駅前 1F), 墨田区, 東京都, 130-0026"
セブンイレブン　墨田菊川1丁目店,SPICE BAR NICO,35.684923,139.798711,Bar,"高橋11-1 (2F), 江東区, 東京都, 135-0005"
セブンイレブン　墨田菊川1丁目店,Yamariki (山利喜 本館),35.688252,139.798612,Sake Bar,"森下2丁目18-8, 江東区, 東京都, 135-0004"
セブンイレブン　墨田菊川1丁目店,Uosan Sakaba (魚三酒場),35.685564,139.798243,Sake Bar,"常盤2丁目10-7 (常盤魚三ビル), 江東区, 東京都, 135-0006"
セブンイレブン　墨田菊川1丁目店,鳥長,35.685303,139.799337,Sake Bar,"高橋9-4, 江東区, 東京都, 135-0005"
セブンイレブン　墨田菊川1丁目店,三徳,35.685395,139.797287,Sake Bar,"常盤2丁目11-1, 江東区, 東京都, 135-0006"
セブンイレブン　墨田菊川1丁目店,両国八百八町花の舞,35.695857,139.797773,Sake Bar,"亀沢1丁目1-15, 墨田区, 東京都, 130-0014"
セブンイレブン　墨田菊川1丁目店,ほ志の,35.681749,139.80093,Sake Bar,"白河1丁目4-13, 江東区, 東京都, 135-0021"
セブンイレブン　墨田菊川1丁目店,Dragon FLY CRAFT BEER HALL,35.681415,139.801225,Beer Bar,"白河2丁目1-4, 江東区, 東京都, 135-0021"
セブンイレブン　墨田菊川1丁目店,もつ焼き稲垣,35.687852,139.797656,Sake Bar,"森下1丁目12-5, 江東区, 東京都, 135-0004"
セブンイレブン　墨田菊川1丁目店,d collection,35.694731,139.795703,Bar,"両国4丁目32-16, 墨田区, 東京都, 130-0026"
セブンイレブン　墨田菊川1丁目店,Torikizoku (鳥貴族 両国店),35.695529,139.793463,Sake Bar,"両国3丁目26-5 (7F), 墨田区, 東京都, 130-0026"
セブンイレブン　墨田菊川1丁目店,大衆酒場鳥椿深川森下店,35.685502,139.798225,Sake Bar,"常盤2丁目10-8, 江東区, 東京都, 135-0006"
セブンイレブン　墨田菊川1丁目店,Minoya (みの家),35.688273,139.798942,Nabe Restaurant,"森下2丁目19-9, 江東区, 東京都, 135-0004"
セブンイレブン　墨田菊川1丁目店,Kameido Gyoza (亀戸ぎょうざ),35.695003,139.797337,Chinese Restaurant,"両国4丁目34-10, 墨田区, 東京都, 130-0026"
セブンイレブン　墨田菊川1丁目店,Moorie (モーリー),35.690191,139.803376,Bar,"立川3丁目1-2 (森村ビル２Ｆ), 墨田区, 東京都, 130-0023"
セブンイレブン　墨田菊川1丁目店,shake tree,35.697187,139.805091,Bar,"亀沢3丁目13-6 (岩崎ビル 1F), 墨田区, 東京都, 130-0014"
セブンイレブン　墨田菊川1丁目店,Kogane Seimenjo (こがね製麺所 森下店),35.687696,139.796509,Bar,"新大橋3丁目3-5, 江東区, 東京都, 135-0007"
セブンイレブン　墨田菊川1丁目店,かねまん,35.688345,139.801688,Sake Bar,"菊川1丁目7-10 (gracek 1F), 墨田区, 東京都, 130-0024"
セブンイレブン　墨田菊川1丁目店,iki ESPRESSO,35.684507,139.796712,Coffee Shop,"常盤2丁目2-12, 江東区, 東京都, 135-0006"
セブンイレブン　墨田菊川1丁目店,汁麺屋胡座,35.695189,139.796416,Ramen Restaurant,"両国4丁目35-1, 墨田区, 東京都, 130-0026"
セブンイレブン　墨田菊川1丁目店,Macchinesti Coffee,35.694783,139.805191,Café,"緑3丁目11-5 (1F), 墨田区, 東京都, 130-0021"
セブンイレブン　墨田菊川1丁目店,ぴぁの,35.693247,139.804563,Karaoke Bar,"緑3丁目4-2, 墨田区, 東京都, 130-0021"
セブンイレブン　墨田菊川1丁目店,割烹 みや古,35.685784,139.796488,Japanese Restaurant,"常盤2丁目7-1, 江東区, 東京都, 135-0006"
セブンイレブン　墨田菊川1丁目店,Single O Ryogoku Roast Works & Cafe,35.698065,139.803248,Coffee Shop,"亀沢3-21-5, 墨田区, 東京都, 130-0014"
セブンイレブン　墨田菊川1丁目店,中華や,35.689985,139.795921,Chinese Restaurant,"千歳2-1, 墨田区, 東京都"
セブンイレブン　墨田菊川1丁目店,萠土,35.694946,139.801733,Bar,"緑2丁目15-1 (セイリュー両国 2階), 墨田区, 東京都, 130-0021"
セブンイレブン　墨田菊川1丁目店,Cattlea (カトレア),35.686984,139.798384,Bakery,"森下1-6-10, 江東区, 東京都, 135-0004"
セブンイレブン　墨田菊川1丁目店,ジンギスカン ゆきだるま 両国部屋,35.695029,139.794035,BBQ Joint,"両国3丁目24-1 (3F), 墨田区, 東京都, 130-0026"
セブンイレブン　墨田菊川1丁目店,サンエトワール両国店,35.695589,139.797373,Bakery,"両国4丁目38-8 (若林ビル1F), 墨田区, 東京都, 130-0026"
セブンイレブン　墨田菊川1丁目店,両国TAIKO,35.693772,139.797509,BBQ Joint,"両国4丁目19-7 (1F), 墨田区, 東京都, 130-0026"
セブンイレブン　墨田菊川1丁目店,Chanko Tomoegata (ちゃんこ巴潟),35.694683,139.792575,Nabe Restaurant,"両国2丁目17-6, 墨田区, 東京都, 130-0026"
セブンイレブン　墨田菊川1丁目店,Tonkatsu Hasegawa (とんかつ はせ川),35.695029,139.794035,Tonkatsu Restaurant,"両国3丁目24-1, 墨田区, 東京都, 130-0026"
セブンイレブン　墨田菊川1丁目店,煉瓦亭,35.687796,139.79498,Yoshoku Restaurant,"新大橋2丁目7-4, 江東区, 東京都, 135-0007"
セブンイレブン　墨田菊川1丁目店,太田屋,35.694897,139.807625,Sake Bar,"緑4丁目20-9 (宮野ビル 1F), 墨田区, 東京都, 130-0021"
セブンイレブン　墨田菊川1丁目店,CAYU des ROIS,35.697631,139.807942,Japanese Restaurant,"亀沢4丁目17-17 (I.T.O bldg 1F), 墨田区, 東京都, 130-0014"
セブンイレブン　墨田菊川1丁目店,Hokusai Sabo (北斎茶房),35.69733,139.807403,Tea Room,"亀沢4丁目8-5, 墨田区, 東京都, 130-0014"
セブンイレブン　墨田菊川1丁目店,酒と肴 ぼたん,35.682025,139.801851,Japanese Restaurant,"白河2丁目9-2, 江東区, 東京都, 135-0021"
セブンイレブン　墨田菊川1丁目店,アニソンDJバーあるけみっ,35.69498,139.793827,Cocktail Bar,"両国3丁目23-9 (栄ビル 2F), 墨田区, 東京都, 130-0026"
セブンイレブン　墨田菊川1丁目店,Sumida Hokusai Museum (すみだ北斎美術館),35.696426,139.800658,Art Museum,"亀沢2丁目7-2, 墨田区, 東京都, 130-0014"
セブンイレブン　墨田菊川1丁目店,Noodle Ken Yuu (麺屋けんゆう 菊川店),35.688202,139.805476,Ramen Restaurant,"菊川2丁目5-8 (YCY 1F), 墨田区, 東京都, 130-0024"
セブンイレブン　墨田菊川1丁目店,Stranger,35.688045,139.806275,Movie Theater,"菊川3丁目7-1 (菊川会館ビル 1F), 墨田区, 東京都, 130-0024"
セブンイレブン　墨田菊川1丁目店,酒菜や ゆず,35.694629,139.793079,Bar,"両国2丁目17-10, 墨田区, 東京都, 130-0026"
セブンイレブン　墨田菊川1丁目店,SIORI,35.681331,139.802823,Wine Bar,"白河2丁目4-12 (Beeslow-Hive 1F), 江東区, 東京都, 135-0021"
セブンイレブン　墨田菊川1丁目店,うどんダイニングYoshi,35.693134,139.793111,Udon Restaurant,"両国2丁目4-5, 墨田区, 東京都, 130-0026"
セブンイレブン　墨田菊川1丁目店,L.S Café,35.682372,139.802338,Café,"白河2丁目14-7 (インゲンビル 1F), 江東区, 東京都, 135-0021"
セブンイレブン　墨田菊川1丁目店,深川温泉 常盤湯,35.684681,139.796956,Bath House,"常盤2丁目3-8, 江東区, 東京都, 135-0006"
セブンイレブン　墨田菊川1丁目店,Asian Mint Cafe (アジアンミントカフェ),35.69513,139.810806,Indian Restaurant,"江東橋1丁目7-20 (トーカンマンション 1F), 墨田区, 東京都, 130-0022"
Flat Share SHIN-OTSUKA Campus,Titans Craft Beer Bar & Bottle Shop,35.730788,139.728471,Beer Bar,"南大塚3丁目53-7, 豊島区, 東京都, 170-0005"
Flat Share SHIN-OTSUKA Campus,Smoke Beer Factory Namachaん Brewing,35.730714,139.730591,Brewery,"南大塚1丁目60-19 (パルムハウス南大塚 1F), 豊島区, 東京都, 170-0005"
Flat Share SHIN-OTSUKA Campus,地酒や もっと,35.730391,139.729722,Sake Bar,"南大塚2丁目44-2, 豊島区, 東京都, 170-0005"
Flat Share SHIN-OTSUKA Campus,THE BROSELEY,35.730185,139.729339,Bar,"南大塚3丁目34-11, 豊島区, 東京都, 170-0005"
Flat Share SHIN-OTSUKA Campus,和来路,35.717559,139.737981,Sake Bar,"小石川5丁目4-8, 文京区, 東京都, 112-0002"
Flat Share SHIN-OTSUKA Campus,cafe&bar totoru (カフェ＆バー トトル),35.719479,139.73463,Bar,"大塚3丁目5-2 (窪町CKビル 1F), 文京区, 東京都, 112-0012"
Flat Share SHIN-OTSUKA Campus,Katchar Batchar (カッチャル バッチャル),35.727257,139.729424,Indian Restaurant,"南大塚3丁目2-10 (林ビル 2F), 豊島区, 東京都, 170-0005"
Flat Share SHIN-OTSUKA Campus,Bar Ocean,35.730257,139.742525,Bar,"本駒込6丁目4-3, 文京区, 東京都, 113-0021"
Flat Share SHIN-OTSUKA Campus,Nakiryu (鳴龍),35.72869,139.730346,Ramen Restaurant,"南大塚2丁目34-4 (SKY南大塚 1F), 豊島区, 東京都, 170-0005"
Flat Share SHIN-OTSUKA Campus,riddle. Coffee&Bar,35.730007,139.727863,Beer Bar,"南大塚3丁目47-8 (大塚赤尾ビル 1F), 豊島区, 東京都, 170-0005"
Flat Share SHIN-OTSUKA Campus,Kitchen ABC (キッチンABC),35.729153,139.729374,Yoshoku Restaurant,"南大塚2丁目36-1 (都営南大塚2丁目アパート1号棟 1F), 豊島区, 東京都, 170-0005"
Flat Share SHIN-OTSUKA Campus,Yappari India (やっぱりインディア),35.730211,139.728089,Indian Restaurant,"南大塚3丁目50-3 (運来ビル 2F), 豊島区, 東京都, 170-0005"
Flat Share SHIN-OTSUKA Campus,Kazu (焼肉 和),35.718079,139.736765,BBQ Joint,"小石川5丁目5-9, 文京区, 東京都, 112-0002"
Flat Share SHIN-OTSUKA Campus,うさぎ屋,35.725102,139.730569,Sake Bar,"大塚4丁目51-3 (第21宮庭マンション), 文京区, 東京都, 112-0012"
Flat Share SHIN-OTSUKA Campus,タイ屋台料理ムエタイハウス (タイ屋台料理 ムエタイハウス),35.72502,139.730222,Yoshoku Restaurant,"大塚 5-9-3, 文京区, 東京都, 112-0012"
Flat Share SHIN-OTSUKA Campus,WORLD NEIGHBORS CAFE,35.72168,139.73246,Café,"大塚4丁目45-9 (WORLD NEIGHBORS 1F), 文京区, 東京都, 112-0012"
Flat Share SHIN-OTSUKA Campus,Shilingol (モンゴル料理 シリンゴル),35.729427,139.737816,Yoshoku Restaurant,"千石4丁目11-9, 文京区, 東京都, 112-0011"
Flat Share SHIN-OTSUKA Campus,Tenkazushi (天下寿司),35.732584,139.728976,Japanese Family Restaurant,"北大塚2丁目15-8, 豊島区, 東京都, 170-0004"
Flat Share SHIN-OTSUKA Campus,ALL DAY HOME 茗荷谷店,35.720557,139.739407,Café,"大塚3丁目35-1, 文京区, 東京都, 112-0012"
Flat Share SHIN-OTSUKA Campus,麺や いま村,35.732949,139.740234,Ramen Restaurant,"巣鴨1丁目13-3 (福沢ビル), 豊島区, 東京都, 170-0002"
Flat Share SHIN-OTSUKA Campus,大塚 みや穂,35.730461,139.727342,Bar,"南大塚3丁目48-5 (大明ビル1F), 豊島区, 東京都, 170-0005"
Flat Share SHIN-OTSUKA Campus,たしろ,35.727127,139.742488,Sake Bar,"千石1丁目18-12, 文京区, 東京都, 112-0011"
Flat Share SHIN-OTSUKA Campus,百円亭主と時代屋の女房,35.720432,139.7277,Restaurant,"大塚5丁目40-2, 文京区, 東京都, 112-0012"
Flat Share SHIN-OTSUKA Campus,Motsuyaki Haru (もつやき はる),35.730067,139.741239,Sake Bar,"千石4丁目42-12 (ローレルハイツ 1F), 文京区, 東京都, 112-0011"
Flat Share SHIN-OTSUKA Campus,Verve,35.717993,139.738103,Cocktail Bar,"小石川5丁目6-20, 文京区, 東京都, 112-0002"
Flat Share SHIN-OTSUKA Campus,文京スポーツセンター,35.720445,139.736263,Landmarks and Outdoors,"大塚3丁目29-2, 文京区, 東京都, 112-0012"
Flat Share SHIN-OTSUKA Campus,Hananomai (はなの舞),35.717943,139.736921,Sake Bar,"小石川5丁目5-6 (茗荷谷光ビル 5F-6F), 文京区, 東京都, 112-0002"
Flat Share SHIN-OTSUKA Campus,酒升,35.730459,139.741674,Sake Bar,"千石4丁目43-7, 文京区, 東京都, 112-0011"
Flat Share SHIN-OTSUKA Campus,酒枡,35.730488,139.741552,Sake Bar,"千石4丁目43-7, 文京区, 東京都, 112-0011"
Flat Share SHIN-OTSUKA Campus,Koshu Ichiba (広州市場),35.730024,139.728905,Ramen Restaurant,"南大塚3丁目52-10, 豊島区, 東京都, 170-0005"
Flat Share SHIN-OTSUKA Campus,バーブ,35.717993,139.738103,Cocktail Bar,"小石川5丁目6-19, 文京区, 東京都, 112-0002"
Flat Share SHIN-OTSUKA Campus,WEDGE Bottle Shop & Pizza,35.717192,139.736191,Beer Bar,"大塚1丁目1-13, 文京区, 東京都, 112-0012"
Flat Share SHIN-OTSUKA Campus,名古屋酒場しるし,35.718879,139.727977,Sake Bar,"音羽2丁目4-2 (ノーブル音羽104), 文京区, 東京都, 112-0013"
Flat Share SHIN-OTSUKA Campus,酒・肴・家庭料理 おがわ,35.719573,139.727005,Sake Bar,"音羽2丁目11-19, 文京区, 東京都, 112-0013"
Flat Share SHIN-OTSUKA Campus,ダイニングバー ハレルヤ,35.718879,139.727977,Bar,"音羽2丁目4-2 (ノーブル音羽 1F), 文京区, 東京都, 112-0013"
Flat Share SHIN-OTSUKA Campus,Ichika (一樺),35.719511,139.726988,Sake Bar,"音羽2丁目11-19 (オトワKSビル 1F), 文京区, 東京都, 112-0013"
Flat Share SHIN-OTSUKA Campus,食堂・酒場 ゴールデンゲート,35.719053,139.727248,Sake Bar,"音羽2丁目11-25 (森田マンション B1F), 文京区, 東京都, 112-0013"
Flat Share SHIN-OTSUKA Campus,皆吉,35.717051,139.73706,Sake Bar,"小日向4丁目6-3 (MUビル 1F), 文京区, 東京都, 112-0006"
Flat Share SHIN-OTSUKA Campus,てしごとや,35.717175,139.738067,Sake Bar,"小石川5-4-4, 文京区, 東京都, 112-0002"
Flat Share SHIN-OTSUKA Campus,TOMITA-YA (巣鴨バル富田屋),35.733771,139.737611,Pub,"巣鴨3丁目28-7 (松岸ビル 2F), 豊島区, 東京都, 170-0002"
Flat Share SHIN-OTSUKA Campus,酒場 こぱぞう,35.716985,139.737754,Sake Bar,"小日向4-6-23 (パレスビル 2F), 文京区, 東京都, 112-0006"
Flat Share SHIN-OTSUKA Campus,iL-CHIANTI NONNO-NONNA,35.733713,139.737854,Italian Restaurant,"巣鴨3丁目28-8 (プリマービル 2F), 豊島, 東京都, 170-0002"
Flat Share SHIN-OTSUKA Campus,Souten (蒼天 南口店),35.729598,139.727359,Yakitori Restaurant,"南大塚3丁目39-13 (嵯峨加藤ビル 1F), 豊島区, 東京都, 170-0005"
Flat Share SHIN-OTSUKA Campus,Starbucks (スターバックス),35.731362,139.728698,Coffee Shop,"南大塚3丁目33-1 (アトレヴィ大塚 2F), 豊島区, 東京都, 170-0005"
Flat Share SHIN-OTSUKA Campus,らぁめん 生姜は文化。,35.730889,139.741535,Ramen Restaurant,"本駒込6丁目6-2, 文京区, 東京都, 113-0021"
Flat Share SHIN-OTSUKA Campus,やきそばー HIT,35.732788,139.738827,Noodle Restaurant,"巣鴨1丁目17-3, 豊島区, 東京都, 170-0002"
Flat Share SHIN-OTSUKA Campus,bar CORAZON,35.729978,139.727984,Bar,"南大塚3丁目47-7 (エトウビル 1F), 豊島区, 東京都, 170-0005"
Flat Share SHIN-OTSUKA Campus,小石川 かとう,35.717658,139.737425,Japanese Restaurant,"小石川5丁目5-2 (バンビビル B1F), 文京区, 東京都, 112-0002"
Flat Share SHIN-OTSUKA Campus,BAR OWL,35.731828,139.729931,Bar,"北大塚1丁目16-7 (B1F), 豊島区, 東京都, 170-0004"
Flat Share SHIN-OTSUKA Campus,Shisui deux,35.730895,139.730382,Café,"南大塚1丁目60-20, 豊島区, 東京都, 170-0005"
徳殿公園,Akimotoya (秋元屋),35.719493,139.653174,Sake Bar,"野方5丁目28-3, 中野区, 東京都, 165-0027"
徳殿公園,ほんま門,35.722873,139.652565,Japanese Restaurant,"野方6丁目18-13, 中野区, 東京都, 165-0027"
徳殿公園,やきとん たつや,35.720347,139.662804,Sake Bar,"沼袋3丁目27-6, 中野区, 東京都, 165-0025"
徳殿公園,UPMARKET,35.729851,139.65711,Pizzeria,"豊玉南2丁目28-6, 練馬区, 東京都, 176-0014"
徳殿公園,Nogata Gyoza (野方餃子),35.723021,139.652218,Chinese Restaurant,"野方6丁目18-8 (杉山ビル1F), 中野区, 東京都, 165-0027"
徳殿公園,江古田珈琲焙煎所,35.729703,139.6686,Café,"江原町2丁目7-19, 中野区, 東京都, 165-0023"
徳殿公園,Hanamichi (味噌麺処 花道庵),35.722394,139.652496,Ramen Restaurant,"野方6丁目23-12, 中野区, 東京都, 165-0027"
徳殿公園,奏食堂,35.723698,139.662318,Sake Bar,"沼袋4丁目31-12, 中野区, 東京都, 165-0025"
徳殿公園,平和苑,35.718652,139.660063,BBQ Joint,"沼袋3丁目23-2, 中野区, 東京都, 165-0025"
徳殿公園,一の湯,35.720223,139.663742,Bathing Area,"沼袋1丁目39-10, 中野区, 東京都, 165-0025"
徳殿公園,Daily Coffee Stand,35.719674,139.651994,Coffee Shop,"野方5丁目31-8, 中野区, 東京都, 165-0027"
徳殿公園,渋谷園芸,35.73186,139.650028,Flower Store,"豊玉中4丁目11-22, 練馬区, 東京都, 176-0013"
徳殿公園,ラーメンの店 ホープ軒環七丸山店,35.72131,139.654006,Ramen Restaurant,"野方4丁目22-4, 中野区, 東京都, 165-0027"
徳殿公園,Torichou (鳥長),35.734531,139.656865,Bar,"豊玉北4丁目31-8, 練馬区, 東京都, 176-0012"
徳殿公園,Tsubohachi (つぼ八 沼袋駅前通り店),35.720429,139.663152,Sake Bar,"沼袋1丁目37-5 (沼袋ビル B1F), 中野区, 東京都, 165-0025"
徳殿公園,たん純,35.722006,139.652323,Sake Bar,"野方6丁目24-10 (野方ビル 1F), 中野区, 東京都, 165-0027"
徳殿公園,Alcolic cafe ロジェ,35.719794,139.663881,Café,"沼袋1丁目39-3 (矢島ビル 2F), 中野区, 東京都, 165-0025"
徳殿公園,居酒家あきば,35.73437,139.656432,Sake Bar,"豊玉北5丁目8-15, 練馬区, 東京都, 176-0012"
徳殿公園,銘酒晴れ桜,35.720075,139.652948,Sake Bar,"野方6丁目3-10 (堀田ビル MB1F), 中野区, 東京都, 165-0027"
徳殿公園,Shimonya (四文屋),35.719261,139.663343,BBQ Joint,"沼袋3丁目4-18, 中野区, 東京都, 165-0025"
徳殿公園,Sushi Choushimaru (すし銚子丸),35.728575,139.650793,Japanese Family Restaurant,"豊玉南3丁目29-2, 練馬区, 東京都, 176-0014"
徳殿公園,第三秋元屋,35.719736,139.652011,Sake Bar,"野方5丁目31-9, 中野区, 東京都, 165-0027"
徳殿公園,Couki (香氣 四川麺条),35.719352,139.663239,Chinese Restaurant,"沼袋3丁目4-18, 中野区, 東京都, 165-0025"
徳殿公園,Mansei (肉の万世),35.733611,139.661725,BBQ Joint,"豊玉北3丁目14-3 (環七通り), 練馬区, 東京都, 176-0012"
徳殿公園,BAR INTREE,35.721778,139.662873,Bar,"沼袋2丁目30-5, 中野区, 東京都, 165-0025"
徳殿公園,満店堂,35.72308,139.652947,Bar,"丸山2丁目3-1, 中野区, 東京都, 165-0021"
徳殿公園,BAR LOOP,35.719695,139.663464,Bar,"沼袋1丁目36-3, 中野区, 東京都, 165-0025"
徳殿公園,Dining Bar 中野十一中,35.719617,139.664349,Bar,"沼袋1丁目34-23, 中野区, 東京都, 165-0025"
徳殿公園,手打ちそば・うどん 成田屋,35.722967,139.662891,Udon Restaurant,"沼袋2丁目40-11, 中野区, 東京都, 165-0025"
徳殿公園,Momotaro Sushi (桃太郎すし),35.734909,139.659174,Sushi Restaurant,"豊玉北4丁目10-5, 練馬区, 東京都, 176-0012"
徳殿公園,CoCo Ichibanya (CoCo壱番屋),35.735174,139.655685,Restaurant,"豊玉北5丁目7-10 (目白通り 練馬リカビル 1F), 練馬区, 東京都, 176-0012"
徳殿公園,杏子のお店,35.730543,139.659765,Bar,"豊玉中2丁目7-3, 練馬区, 東京都, 176-0013"
徳殿公園,やきとり 鳥はし,35.722352,139.662978,Sake Bar,"沼袋2丁目32-6, 中野区, 東京都, 165-0025"
徳殿公園,Vertigo2,35.723026,139.65345,Bar,"丸山2丁目1-1, 中野区, 東京都, 165-0021"
徳殿公園,カレー&バースジャータ,35.721931,139.662665,Cocktail Bar,"沼袋4丁目27-16, 中野区, 東京都, 165-0025"
徳殿公園,飲み処食い処わら家,35.723108,139.652826,Sake Bar,"丸山2丁目3-3, 中野区, 東京都, 165-0021"
徳殿公園,爽,35.720912,139.662509,Bar,"沼袋3丁目28-7, 中野区, 東京都, 165-0025"
徳殿公園,Kahei (嘉兵衛),35.720491,139.663169,Sake Bar,"沼袋1丁目37-7, 中野区, 東京都, 165-0025"
徳殿公園,和 ちろる,35.719616,139.662405,Bar,"沼袋3丁目26-1, 中野区, 東京都, 165-0025"
徳殿公園,ケイム,35.719971,139.663412,Bar,"沼袋1丁目36-5, 中野区, 東京都, 165-0025"
徳殿公園,Keim,35.719831,139.663308,Pub,"沼袋1丁目36-5 (高山ビル 1F), 中野区, 東京都, 165-0025"
徳殿公園,灯屋酒処 Anji,35.719816,139.654041,Sake Bar,"野方4丁目19-4, 中野区, 東京都, 165-0027"
徳殿公園,喜怒哀楽,35.719963,139.663863,Bar,"沼袋1丁目39-5, 中野区, 東京都, 165-0025"
徳殿公園,あんちゃん,35.719695,139.663464,Bar,"沼袋1丁目36-3, 中野区, 東京都, 165-0025"
徳殿公園,道楽親父,35.725544,139.6686,Bar,"東京都中野区江古田２丁目４−８, 中野区, 東京都, 165-0022"
徳殿公園,想い出マグロ,35.719732,139.663863,Sake Bar,"沼袋1丁目39-3 (矢島ビル), 中野区, 東京都, 165-0025"
徳殿公園,ハイボール酒場寅次郎,35.720179,139.664766,Sake Bar,"沼袋1丁目34-6 (戸倉ハウジング 1F), 中野区, 東京都, 165-0025"
徳殿公園,居酒屋フクンチ,35.719675,139.664106,Sake Bar,"沼袋1丁目8-22 (ヤマニビル 2F), 中野区, 東京都, 165-0025"
徳殿公園,まこっちゃん,35.719646,139.664228,Sake Bar,"沼袋1丁目34-25, 中野区, 東京都, 165-0025"
徳殿公園,筑前屋沼袋店 (越前屋 沼袋店),35.719617,139.664349,Sake Bar,"沼袋1丁目34-24, 中野区, 東京都, 165-0025"
コインパーク中野中央,Gorilla Bar,35.69872,139.670738,Cocktail Bar,"中央4丁目10-8, 中野区, 東京都, 164-0011"
コインパーク中野中央,Nakano Beer Kobo (中野ビール工房),35.709222,139.666555,Bar,"中野5丁目53-4 (昭和新道商店街板塀前), 中野区, 東京都, 164-0001"
コインパーク中野中央,vang vieng 中野店,35.70753,139.666729,Hookah Bar,"中野5丁目36-6, 中野区, 東京都, 164-0001"
コインパーク中野中央,Tasting Bar 柴田屋酒店本店,35.697971,139.667355,Beer Bar,"中央5丁目3-11 (柴田屋酒店), 中野区, 東京都, 164-0011"
コインパーク中野中央,鎌倉酒店,35.704248,139.66581,Sake Bar,"中野2丁目30-14, 中野区, 東京都, 164-0001"
コインパーク中野中央,Guttsu (煮込み屋 ぐっつ),35.706502,139.667024,Wine Bar,"中野5丁目32-17, 中野区, 東京都, 164-0001"
コインパーク中野中央,NAKANO ブリック,35.706918,139.666104,Pub,"中野5丁目61-3, 中野区, 東京都, 164-0001"
コインパーク中野中央,J-Juke80's,35.707831,139.666295,Bar,"中野5丁目59-12 (中島ビル B1F), 中野区, 東京都, 164-0001"
コインパーク中野中央,魚の四文屋,35.708219,139.666468,Sake Bar,"中野5丁目56-15, 中野区, 東京都, 164-0001"
コインパーク中野中央,Yaruki (スパイス&ハーブ居酒屋 やるき),35.694464,139.668639,Sake Bar,"本町4丁目36-7, 中野区, 東京都, 164-0012"
コインパーク中野中央,中野青二才,35.705015,139.664664,Sake Bar,"中野3丁目35-7 (松井ビル 1F), 中野区, 東京都, 164-0001"
コインパーク中野中央,やきとり処月忠中野店,35.710462,139.663275,Sake Bar,"新井2丁目30-11 (パンデコンビル 1F), 中野区, 東京都, 165-0026"
コインパーク中野中央,フローチャート,35.710489,139.66678,Gastropub,"新井1丁目14-1 (シェ・ミユ B1F), 中野区, 東京都, 165-0026"
コインパーク中野中央,Syain Bar,35.697207,139.665846,Bar,"本町6丁目20-12 (SAN新中野ビル 1F), 中野区, 東京都, 164-0012"
コインパーク中野中央,JAZZ BAR Sea,35.697849,139.670235,Bar,"中央4丁目1-6 (新中野会館 1F), 中野区, 東京都, 164-0011"
コインパーク中野中央,ジンギスカン ゆきだるま 中野部屋,35.70284,139.66548,BBQ Joint,"中野3丁目33-20 (中野五差路ビル 2F), 中野区, 東京都, 164-0001"
コインパーク中野中央,BAR黒猫,35.697387,139.671207,Bar,"本町4丁目30-26 (第二藤尾ビル 2F), 中野区, 東京都, 164-0012"
コインパーク中野中央,Wine Bar RABAT (ワインバー ラバト),35.699044,139.658524,Wine Bar,"高円寺南1丁目6-15 (倉島ビル 1階), 杉並区, 東京都, 166-0003"
コインパーク中野中央,ジンギスカン ゆきだるま 中野部屋,35.704207,139.666122,BBQ Joint,"中野2丁目26-10 (中村ビル 3F), 中野区, 東京都, 164-0001"
コインパーク中野中央,Nidaime Budoka (二代目武道家),35.704008,139.665289,Ramen Restaurant,"中野3丁目34-32 (凱旋ビル 1F), 中野区, 東京都, 164-0001"
コインパーク中野中央,The Pocket (ザ・ポケット),35.703627,139.662721,Theater,"中野3丁目22-8, 中野区, 東京都, 164-0001"
コインパーク中野中央,讃岐のおうどん 花は咲く,35.699102,139.667736,Udon Restaurant,"中央4丁目6-12 (新中野マンション103), 中野区, 東京都, 164-0011"
コインパーク中野中央,Barikote (博多ラーメン ばりこて),35.700526,139.659651,Ramen Restaurant,"高円寺南1丁目30-15 (ハイツワコー 1F), 杉並区, 東京都, 166-0003"
コインパーク中野中央,Tsui-teru!,35.707422,139.666763,Bistro,"中野5丁目36-5 (ヴィラAK 2F), 中野区, 東京都, 164-0001"
コインパーク中野中央,Nakano Shikinomori Park (中野四季の森公園),35.707473,139.661402,Park,"中野4-13, 中野区, 東京都, 164-0001"
コインパーク中野中央,Gyoza no Manshu (ぎょうざの満洲 中野南口店),35.703476,139.665723,Chinese Restaurant,"中野2丁目29-6 (リカム8), 中野区, 東京都, 164-0001"
コインパーク中野中央,Sabagin (さば銀),35.706221,139.666816,Bar,"中野5丁目32-9, 中野区, 東京都, 164-0001"
コインパーク中野中央,Ichi-Ban-Kan (中華食堂 一番館),35.704809,139.666226,Chinese Restaurant,"中野2丁目25-3 (中野南口駅前 カミヤビル 1F), 中野区, 東京都, 164-0001"
コインパーク中野中央,高砂湯,35.701831,139.669731,Bathing Area,"中央4丁目49-2, 中野区, 東京都, 164-0011"
コインパーク中野中央,Komeda's Coffee (コメダ珈琲店),35.704652,139.665081,Café,"中野3丁目34-28 (中野マルイ 2F), 中野区, 東京都, 164-0001"
